row_number,gid,line_no,railway,line_typt,line_type,status,line_th,line_en,station_th,station_en,latitude,longitude,prov_namt,prov_name,amp_namt,amp_name,tam_namt,tam_name
312,228,8,รถไฟฟ้า,เอ็มอาร์ที,MRT,อนาคต,สายสีส้ม,Orange Line,สนามหลวง,Sanam Luang,13.75777000,100.49652700,กรุงเทพมหานคร,BANGKOK,พระนคร,PHRA NAKHON,ตลาดยอด,TALAT YOT
138,91,3,รถไฟฟ้า,เอ็มอาร์ที,MRT,ปัจจุบัน,สายสีน้ำเงิน,Blue Line,ศูนย์วัฒนธรรมแห่งประเทศไทย,Thailand Cultural Centre,13.76479100,100.56913000,กรุงเทพมหานคร,BANGKOK,ดินแดง,DIN DAENG,ดินแดง,DIN DAENG
46,26,1,รถไฟฟ้า,บีทีเอส,BTS,ปัจจุบัน,สายสุขุมวิท,Sukhumvit Line,พญาไท,Phaya Thai,13.75695300,100.53382500,กรุงเทพมหานคร,BANGKOK,ราชเทวี,RATCHATHEWI,ทุ่งพญาไท,THUNG PHAYA THAI
256,109,3,รถไฟฟ้า,เอ็มอาร์ที,MRT,ปัจจุบัน,สายสีน้ำเงิน,Blue Line,ภาษีเจริญ,Phasi Charoen,13.71286600,100.43345400,กรุงเทพมหานคร,BANGKOK,บางแค,BANG KHAE,บางแค,BANG KHAE
318,30,1,รถไฟฟ้า,บีทีเอส,BTS,ปัจจุบัน,สายสุขุมวิท,Sukhumvit Line,เพลินจิต,Phloen Chit,13.74306600,100.54899500,กรุงเทพมหานคร,BANGKOK,ปทุมวัน,PATHUM WAN,ลุมพินี,LUMPHINI
29,216,8,รถไฟฟ้า,เอ็มอาร์ที,MRT,อนาคต,สายสีส้ม,Orange Line,น้อมเกล้า,Nom Klao,13.78599600,100.68965600,กรุงเทพมหานคร,BANGKOK,สะพานสูง,SAPHAN SUNG,สะพานสูง,SAPHAN SUNG
40,54,1,รถไฟฟ้า,บีทีเอส,BTS,อนาคต,สายสุขุมวิท,Sukhumvit Line,ศรีจันทร์ประดิษฐ์,Si Chan Pradit,13.52439500,100.64213900,สมุทรปราการ,SAMUT PRAKAN,บางพลี,BANG PHLI,บางปลา,BANG PLA
264,202,7,รถไฟฟ้า,เอสอาร์ที,SRT,ปัจจุบัน,สายสีแดงเข้ม,Dark Red Line,บางเขน,Bang Khen,13.84874900,100.56159500,กรุงเทพมหานคร,BANGKOK,จตุจักร,CHATUCHAK,ลาดยาว,LAT YAO
243,212,8,รถไฟฟ้า,เอ็มอาร์ที,MRT,อนาคต,สายสีส้ม,Orange Line,ลำสาลี,Lam Sali,13.76304500,100.64829500,กรุงเทพมหานคร,BANGKOK,บางกะปิ,BANG KAPI,หัวหมาก,HUA MAK
153,94,3,รถไฟฟ้า,เอ็มอาร์ที,MRT,ปัจจุบัน,สายสีน้ำเงิน,Blue Line,สุขุมวิท,Sukhumvit,13.73684200,100.56133300,กรุงเทพมหานคร,BANGKOK,คลองเตย,KHLONG TOEI,คลองเตย,KHLONG TOEI
14,259,9,รถไฟฟ้า,เอ็มอาร์ทีเอ,MRT,อนาคต,สายสีเหลือง,Yellow Line,สำโรง,สำโรง,13.64551800,100.59540000,สมุทรปราการ,SAMUT PRAKAN,พระประแดง,PHRA PRADAENG,สำโรงกลาง,SAMRONG KLANG
59,209,7,รถไฟฟ้า,เอสอาร์ที,SRT,อนาคต,สายสีแดงเข้ม,Dark Red Line,คลองหนึ่ง,Khlong Nueng,14.01190200,100.59966800,ปทุมธานี,PATHUM THANI,คลองหลวง,KHLONG LUANG,คลองหนึ่ง,KHLONG NUENG
191,294,12,รถไฟฟ้า,บีทีเอส,BTS,ปัจจุบัน,สายสีเทา,Grey Line,ฉลองรัช,Chalong Rat,13.78611200,100.60806400,กรุงเทพมหานคร,BANGKOK,วังทองหลาง,WANG THONGLANG,คลองเจ้าคุณสิงห์,KHLONG CHAOKHUN SING
96,199,7,รถไฟฟ้า,เอสอาร์ที,SRT,ปัจจุบัน,สายสีแดงเข้ม,Dark Red Line,บางซื่อ,Bang Sue,13.80791800,100.54308100,กรุงเทพมหานคร,BANGKOK,บางซื่อ,BANG SUE,บางซื่อ,BANG SUE
42,288,11,รถไฟฟ้า,บีทีเอส,BTS,ปัจจุบัน,สายสีทอง,Gold line,สถานีกรุงธนบุรี,Krung Thonburi,13.72094643,100.50310970,กรุงเทพมหานคร,BANGKOK,คลองสาน,KHLONG SAN,บางลำภูล่าง,BANG LAMPHU LANG
301,113,3,รถไฟฟ้า,เอ็มอาร์ที,MRT,อนาคต,สายสีน้ำเงิน,Blue Line,ทวีวัฒนา,Thawi Watthana,13.70832500,100.37600700,กรุงเทพมหานคร,BANGKOK,บางแค,BANG KHAE,หลักสอง,LAK SONG
117,191,7,รถไฟฟ้า,เอสอาร์ที,SRT,อนาคต,สายสีแดงเข้ม,Dark Red Line,บางน้ำจืด,Bang Nam Chuet,13.60303000,100.35800700,สมุทรสาคร,Samut Sakhon,เมืองสมุทรสาคร,Mueang Samut Sakhon,บางน้ำจืด,Bang Nam Chuet
93,255,9,รถไฟฟ้า,เอ็มอาร์ทีเอ,MRT,อนาคต,สายสีเหลือง,Yellow Line,ศรีด่าน,Si Dan,13.63409600,100.63070600,สมุทรปราการ,SAMUT PRAKAN,บางพลี,BANG PHLI,บางแก้ว,BANG KAEO
41,147,4,รถไฟฟ้า,เอ็มอาร์ที,MRT,อนาคต,สายสีม่วง,Purple Line,ราษฎร์บูรณะ,Rat Burana,13.66889000,100.51303100,กรุงเทพมหานคร,BANGKOK,ราษฎร์บูรณะ,RAT BURANA,ราษฎร์บูรณะ,RAT BURANA
291,37,1,รถไฟฟ้า,บีทีเอส,BTS,ปัจจุบัน,สายสุขุมวิท,Sukhumvit Line,อ่อนนุช,On Nut,13.70567800,100.60105800,กรุงเทพมหานคร,BANGKOK,พระโขนง,PHRA KHANONG,บางจาก,BANG CHAK
73,80,3,รถไฟฟ้า,เอ็มอาร์ที,MRT,ปัจจุบัน,สายสีน้ำเงิน,Blue Line,บางอ้อ,Bang O,13.79940630,100.51014400,กรุงเทพมหานคร,BANGKOK,บางพลัด,BANG PHLAT,บางอ้อ,BANG O
32,190,7,รถไฟฟ้า,เอสอาร์ที,SRT,อนาคต,สายสีแดงเข้ม,Dark Red Line,ทุ่งสีทอง,Thung Si Thong,13.61155900,100.36736800,สมุทรสาคร,Samut Sakhon,เมืองสมุทรสาคร,Mueang Samut Sakhon,บางน้ำจืด,Bang Nam Chuet
296,176,6,รถไฟฟ้า,เอสอาร์ที,SRT,อนาคต,สายสีแดงอ่อน,Light Red Line,ศิริราช,Siriraj,13.76096582,100.48387620,กรุงเทพมหานคร,BANGKOK,บางกอกน้อย,BANGKOK NOI,ศิริราช,SIRIRAT
154,115,3,รถไฟฟ้า,เอ็มอาร์ที,MRT,อนาคต,สายสีน้ำเงิน,Blue Line,พุทธมณฑลสาย-4,Phutthamonthon Sai 4,13.70470900,100.33159100,สมุทรสาคร,Samut Sakhon,กระทุ่มแบน,Krathum Baen,อ้อมน้อย,Omnoi
216,286,11,รถไฟฟ้า,บีทีเอส,BTS,ปัจจุบัน,สายสีทอง,Gold line,สถานีคลองสาน,Khlong San,13.73054511,100.50735420,กรุงเทพมหานคร,BANGKOK,คลองสาน,KHLONG SAN,คลองสาน,KHLONG SAN
250,296,12,รถไฟฟ้า,บีทีเอส,BTS,ปัจจุบัน,สายสีเทา,Grey Line,พระราม-9,Rama IX,13.75243700,100.59342400,กรุงเทพมหานคร,BANGKOK,ห้วยขวาง,HUAI KHWANG,บางกะปิ,BANG KAPI
163,78,3,รถไฟฟ้า,เอ็มอาร์ที,MRT,ปัจจุบัน,สายสีน้ำเงิน,Blue Line,สิรินธร,Sirindhorn,13.78531800,100.49567400,กรุงเทพมหานคร,BANGKOK,บางพลัด,BANG PHLAT,บางพลัด,BANG PHLAT
261,90,3,รถไฟฟ้า,เอ็มอาร์ที,MRT,ปัจจุบัน,สายสีน้ำเงิน,Blue Line,ห้วยขวาง,Huai Khwang,13.77890900,100.57360300,กรุงเทพมหานคร,BANGKOK,ดินแดง,DIN DAENG,รัชดาภิเษก,RATCHADAPHISEK
196,252,9,รถไฟฟ้า,เอ็มอาร์ทีเอ,MRT,อนาคต,สายสีเหลือง,Yellow Line,ศรีเอี่ยม,Si Iam,13.66430700,100.64407200,กรุงเทพมหานคร,BANGKOK,บางนา,BANG NA,บางนาใต้,BANG NA TAI
275,56,2,รถไฟฟ้า,บีทีเอส,BTS,ปัจจุบัน,สายสีลม,Silom Line,ยศเส,ยศเส,13.74848800,100.51847000,กรุงเทพมหานคร,BANGKOK,ปทุมวัน,PATHUM WAN,รองเมือง,RONG MUEANG
227,224,8,รถไฟฟ้า,เอ็มอาร์ที,MRT,อนาคต,สายสีส้ม,Orange Line,ราชเทวี,Ratchathewi,13.75350000,100.53103800,กรุงเทพมหานคร,BANGKOK,ราชเทวี,RATCHATHEWI,ถนนเพชรบุรี,THANON PHET BURI
38,251,9,รถไฟฟ้า,เอ็มอาร์ทีเอ,MRT,อนาคต,สายสีเหลือง,Yellow Line,ศรีอุดม,Si Udom,13.67707900,100.64598600,กรุงเทพมหานคร,BANGKOK,บางนา,BANG NA,บางนาใต้,BANG NA TAI
108,43,1,รถไฟฟ้า,บีทีเอส,BTS,ปัจจุบัน,สายสุขุมวิท,Sukhumvit Line,สำโรง,Samrong,13.64612200,100.59565100,สมุทรปราการ,SAMUT PRAKAN,พระประแดง,PHRA PRADAENG,สำโรงกลาง,SAMRONG KLANG
156,24,1,รถไฟฟ้า,บีทีเอส,BTS,ปัจจุบัน,สายสุขุมวิท,Sukhumvit Line,สนามเป้า,Sanam Pao,13.77264500,100.54209200,กรุงเทพมหานคร,BANGKOK,พญาไท,PHAYA THAI,พญาไท,PHAYA THAI
34,46,1,รถไฟฟ้า,บีทีเอส,BTS,ปัจจุบัน,สายสุขุมวิท,Sukhumvit Line,โรงเรียนนายเรือ,Royal Thai Naval Academy,13.60805400,100.59494700,สมุทรปราการ,SAMUT PRAKAN,พระสมุทรเจดีย์,PHRA SAMUT CHEDI,ปากคลองบางปลากด,PAK KHLONG BANG PLA KOT
281,271,10,รถไฟฟ้า,เอ็มอาร์ทีเอ,MRT,อนาคต,สายสีชมพู,Pink Line,รามอินทรา-40,Ram Inthra 40,13.84769200,100.64553000,กรุงเทพมหานคร,BANGKOK,บึงกุ่ม,BUENG KUM,นวลจันทร์,NUAN CHAN
126,117,4,รถไฟฟ้า,เอ็มอาร์ที,MRT,ปัจจุบัน,สายสีม่วง,Purple Line,บางซ่อน,Bang Son,13.82157300,100.53265600,กรุงเทพมหานคร,BANGKOK,บางซื่อ,BANG SUE,บางซื่อ,BANG SUE
95,107,3,รถไฟฟ้า,เอ็มอาร์ที,MRT,ปัจจุบัน,สายสีน้ำเงิน,Blue Line,บางหว้า,Bang Wa,13.72049500,100.45767900,กรุงเทพมหานคร,BANGKOK,ภาษีเจริญ,PHASI CHAROEN,บางหว้า,BANG WA
66,114,3,รถไฟฟ้า,เอ็มอาร์ที,MRT,อนาคต,สายสีน้ำเงิน,Blue Line,พุทธมณฑลสาย-3,Phutthamonthon Sai 3,13.70717400,100.36133100,กรุงเทพมหานคร,BANGKOK,หนองแขม,NONG KHAEM,หนองแขม,NONG KHAEM
188,146,4,รถไฟฟ้า,เอ็มอาร์ที,MRT,อนาคต,สายสีม่วง,Purple Line,ประชาอุทิศ,ประชาอุทิศ,13.67526700,100.50288100,กรุงเทพมหานคร,BANGKOK,ราษฎร์บูรณะ,RAT BURANA,บางปะกอก,BANG PAKOK
295,139,4,รถไฟฟ้า,เอ็มอาร์ที,MRT,อนาคต,สายสีม่วง,Purple Line,สะพานพุทธ,Memorial Bridge,13.73325600,100.49546900,กรุงเทพมหานคร,BANGKOK,ธนบุรี,THON BURI,หิรัญรูจี,HIRANRUCHI
199,304,12,รถไฟฟ้า,บีทีเอส,BTS,อนาคต,สายสีเทา,Grey Line,แยกรัชดาพระราม-4,Ratchada-Rama IV,13.72007300,100.55937800,กรุงเทพมหานคร,BANGKOK,คลองเตย,KHLONG TOEI,คลองเตย,KHLONG TOEI
70,50,1,รถไฟฟ้า,บีทีเอส,BTS,ปัจจุบัน,สายสุขุมวิท,Sukhumvit Line,สายลวด,Sai Luat,13.57665900,100.60492300,สมุทรปราการ,SAMUT PRAKAN,พระสมุทรเจดีย์,PHRA SAMUT CHEDI,แหลมฟ้าผ่า,LAEM FA PHA
123,217,8,รถไฟฟ้า,เอ็มอาร์ที,MRT,อนาคต,สายสีส้ม,Orange Line,ราษฎร์พัฒนา,Rat Phatthana,13.79299700,100.70228500,กรุงเทพมหานคร,BANGKOK,สะพานสูง,SAPHAN SUNG,ราษฎร์พัฒนา,RAT PHATTHANA
53,222,8,รถไฟฟ้า,เอ็มอาร์ที,MRT,อนาคต,สายสีส้ม,Orange Line,ราชปรารภ,Ratchaprarop,13.75489275,100.54219650,กรุงเทพมหานคร,BANGKOK,ราชเทวี,RATCHATHEWI,ถนนพญาไท,THANON PHAYA THAI
164,85,3,รถไฟฟ้า,เอ็มอาร์ที,MRT,ปัจจุบัน,สายสีน้ำเงิน,Blue Line,สวนจตุจักร,Chatuchak Park,13.80262700,100.55372300,กรุงเทพมหานคร,BANGKOK,จตุจักร,CHATUCHAK,จตุจักร,CHATUCHAK
28,189,7,รถไฟฟ้า,เอสอาร์ที,SRT,อนาคต,สายสีแดงเข้ม,Dark Red Line,พรมแดน,Phrom Daen,13.62233400,100.37921100,กรุงเทพมหานคร,BANGKOK,บางบอน,BANG BON,บางบอนเหนือ,BANG BON NUEA
127,23,1,รถไฟฟ้า,บีทีเอส,BTS,ปัจจุบัน,สายสุขุมวิท,Sukhumvit Line,อารีย์,Ari,13.77973100,100.54465100,กรุงเทพมหานคร,BANGKOK,พญาไท,PHAYA THAI,พญาไท,PHAYA THAI
50,84,3,รถไฟฟ้า,เอ็มอาร์ที,MRT,ปัจจุบัน,สายสีน้ำเงิน,Blue Line,กำแพงเพชร,Kamphaeng Phet,13.79768500,100.54812900,กรุงเทพมหานคร,BANGKOK,จตุจักร,CHATUCHAK,จตุจักร,CHATUCHAK
87,298,12,รถไฟฟ้า,บีทีเอส,BTS,อนาคต,สายสีเทา,Grey Line,ทองหล่อ-25,Thong Lo 25,13.73846300,100.58407300,กรุงเทพมหานคร,BANGKOK,วัฒนา,VADHANA,คลองตันเหนือ,KHLONG TAN NUEA
246,134,4,รถไฟฟ้า,เอ็มอาร์ที,MRT,อนาคต,สายสีม่วง,Purple Line,สามเสน,Sam Sen,13.77858800,100.50852700,กรุงเทพมหานคร,BANGKOK,ดุสิต,DUSIT,วชิรพยาบาล,WACHIRA PHAYABAN
107,235,8,รถไฟฟ้า,เอ็มอาร์ที,MRT,อนาคต,สายสีส้ม,Orange Line,คลองลาดพร้าว,คลองลาดพร้าว,13.76866600,100.59420300,กรุงเทพมหานคร,BANGKOK,ห้วยขวาง,HUAI KHWANG,สามเสนนอก,SAM SEN NOK
277,170,6,รถไฟฟ้า,เอสอาร์ที,SRT,อนาคต,สายสีแดงอ่อน,Light Red Line,เขาดินวนา,เขาดินวนา,13.77420600,100.51764100,กรุงเทพมหานคร,BANGKOK,ดุสิต,DUSIT,สวนจิตรลดา,SUAN CHITLADA
158,159,6,รถไฟฟ้า,เอสอาร์ที,SRT,อนาคต,สายสีแดงอ่อน,Light Red Line,มักกะสัน,Makkasan,13.75077900,100.56082300,กรุงเทพมหานคร,BANGKOK,ราชเทวี,RATCHATHEWI,มักกะสัน,MAKKASAN
177,197,7,รถไฟฟ้า,เอสอาร์ที,SRT,อนาคต,สายสีแดงเข้ม,Dark Red Line,ราชวิถี,Ratchawithi,13.77063400,100.52639700,กรุงเทพมหานคร,BANGKOK,ราชเทวี,RATCHATHEWI,ทุ่งพญาไท,THUNG PHAYA THAI
282,279,10,รถไฟฟ้า,เอ็มอาร์ทีเอ,MRT,ปัจจุบัน,สายสีชมพู,Pink Line,ศูนย์ราชการนนทบุรี,Nonthaburi Civic Center,13.86009800,100.51552600,นนทบุรี,NONTHABURI,เมืองนนทบุรี,MUEANG NONTHABURI,ตลาดขวัญ,TALAT KHWAN
3,151,5,รถไฟฟ้า,แอร์พอร์ต-เรล-ลิงค์,Airport-Rail-Link,ปัจจุบัน,แอร์พอร์ต เรล ลิงค์,Airport Rail Link,รามคำแหง,Ramkhamhaeng,13.74293014,100.60022060,กรุงเทพมหานคร,BANGKOK,สวนหลวง,SUAN LUANG,สวนหลวง,SUAN LUANG
309,118,4,รถไฟฟ้า,เอ็มอาร์ที,MRT,ปัจจุบัน,สายสีม่วง,Purple Line,วงศ์สว่าง,Wong Sawang,13.82889400,100.52769900,กรุงเทพมหานคร,BANGKOK,บางซื่อ,BANG SUE,วงศ์สว่าง,WONG SAWANG
267,141,4,รถไฟฟ้า,เอ็มอาร์ที,MRT,อนาคต,สายสีม่วง,Purple Line,สำเหร่,สำเหร่,13.71598000,100.48950700,กรุงเทพมหานคร,BANGKOK,ธนบุรี,THON BURI,สำเหร่,SAMRE
124,68,2,รถไฟฟ้า,บีทีเอส,BTS,ปัจจุบัน,สายสีลม,Silom Line,วุฒากาศ,Wutthakat,13.71245200,100.47051300,กรุงเทพมหานคร,BANGKOK,จอมทอง,CHOM THONG,บางค้อ,BANG KHO
314,226,8,รถไฟฟ้า,เอ็มอาร์ที,MRT,อนาคต,สายสีส้ม,Orange Line,หลานหลวง,Lan Luang,13.75649600,100.51232900,กรุงเทพมหานคร,BANGKOK,ป้อมปราบศัตรูพ่าย,POM PRAP SATTRU PHAI,วัดโสมนัส,WAT SOMMANAT
161,308,12,รถไฟฟ้า,บีทีเอส,BTS,ปัจจุบัน,สายสีเทา,Grey Line,สาธุประดิษฐ์,Sathu Pradit,13.69431800,100.53239600,กรุงเทพมหานคร,BANGKOK,ยานนาวา,YAN NAWA,ช่องนนทรี,CHONG NONSI
121,257,9,รถไฟฟ้า,เอ็มอาร์ทีเอ,MRT,อนาคต,สายสีเหลือง,Yellow Line,ทัพวัล,Thipphawan,13.63685000,100.60972200,สมุทรปราการ,SAMUT PRAKAN,พระประแดง,PHRA PRADAENG,สำโรงกลาง,SAMRONG KLANG
52,241,9,รถไฟฟ้า,เอ็มอาร์ทีเอ,MRT,อนาคต,สายสีเหลือง,Yellow Line,โชคชัย-4,Chok Chai 4,13.79442800,100.59440000,กรุงเทพมหานคร,BANGKOK,ลาดพร้าว,LAT PHRAO,ลาดพร้าว,LAT PHRAO
146,311,13,รถไฟฟ้า,บีทีเอส,BTS,อนาคต,สายสีฟ้า,Light Blue Line,มิตรไมตรี,Mit Maitri,13.76549800,100.55689500,กรุงเทพมหานคร,BANGKOK,ดินแดง,DIN DAENG,ดินแดง,DIN DAENG
221,317,13,รถไฟฟ้า,บีทีเอส,BTS,อนาคต,สายสีฟ้า,Light Blue Line,สวนพลู,Suan Phlu,13.72391500,100.53718600,กรุงเทพมหานคร,BANGKOK,บางรัก,BANG RAK,สีลม,SI LOM
91,234,8,รถไฟฟ้า,เอ็มอาร์ที,MRT,อนาคต,สายสีส้ม,Orange Line,ศูนย์วัฒนธรรมแห่งประเทศไทย,Thailand Cultural Centre,13.76509100,100.57014800,กรุงเทพมหานคร,BANGKOK,ดินแดง,DIN DAENG,ดินแดง,DIN DAENG
18,110,3,รถไฟฟ้า,เอ็มอาร์ที,MRT,ปัจจุบัน,สายสีน้ำเงิน,Blue Line,บางแค,Bang Khae,13.71192700,100.42158100,กรุงเทพมหานคร,BANGKOK,บางแค,BANG KHAE,บางแค,BANG KHAE
102,266,10,รถไฟฟ้า,เอ็มอาร์ทีเอ,MRT,ปัจจุบัน,สายสีชมพู,Pink Line,หลักสี่,Lak Si,13.88451088,100.58110930,กรุงเทพมหานคร,BANGKOK,หลักสี่,LAK SI,ตลาดบางเขน,TALAT BANG KHEN
255,204,7,รถไฟฟ้า,เอสอาร์ที,SRT,ปัจจุบัน,สายสีแดงเข้ม,Dark Red Line,หลักสี่,Lak Si,13.88555400,100.58169900,กรุงเทพมหานคร,BANGKOK,หลักสี่,LAK SI,ตลาดบางเขน,TALAT BANG KHEN
168,210,7,รถไฟฟ้า,เอสอาร์ที,SRT,อนาคต,สายสีแดงเข้ม,Dark Red Line,เชียงราก,Chiang Rak,14.03657700,100.59581300,ปทุมธานี,PATHUM THANI,คลองหลวง,KHLONG LUANG,คลองหนึ่ง,KHLONG NUENG
45,256,9,รถไฟฟ้า,เอ็มอาร์ทีเอ,MRT,อนาคต,สายสีเหลือง,Yellow Line,ศรีเทพา,Si Thepha,13.63085900,100.62089200,สมุทรปราการ,SAMUT PRAKAN,บางพลี,BANG PHLI,บางแก้ว,BANG KAEO
280,106,3,รถไฟฟ้า,เอ็มอาร์ที,MRT,ปัจจุบัน,สายสีน้ำเงิน,Blue Line,บางไผ่,Bang Phai,13.72590600,100.46749200,กรุงเทพมหานคร,BANGKOK,บางกอกใหญ่,BANGKOK YAI,วัดท่าพระ,WAT THA PHRA
209,1,1,รถไฟฟ้า,บีทีเอส,BTS,อนาคต,สายสุขุมวิท,Sukhumvit Line,วงแหวนรอบนอกตะวันออก,Wongwaen Rop Nok Tawan-ok,13.93384500,100.71446200,กรุงเทพมหานคร,BANGKOK,คลองสามวา,KHLONG SAM WA,สามวาตะวันตก,SAM WA TAWAN TOK
115,116,4,รถไฟฟ้า,เอ็มอาร์ที,MRT,ปัจจุบัน,สายสีม่วง,Purple Line,เตาปูน,Tao Poon,13.80717200,100.53088100,กรุงเทพมหานคร,BANGKOK,บางซื่อ,BANG SUE,บางซื่อ,BANG SUE
266,273,10,รถไฟฟ้า,เอ็มอาร์ทีเอ,MRT,อนาคต,สายสีชมพู,Pink Line,วงแหวนตะวันออก,East Outer Ring Road,13.82327400,100.67785400,กรุงเทพมหานคร,BANGKOK,คันนายาว,KHAN NA YAO,คันนายาว,KHAN NA YAO
303,67,2,รถไฟฟ้า,บีทีเอส,BTS,ปัจจุบัน,สายสีลม,Silom Line,ตลาดพลู,Talat Phlu,13.71428790,100.47668700,กรุงเทพมหานคร,BANGKOK,ธนบุรี,THON BURI,ตลาดพลู,TALAT PHLU
222,313,13,รถไฟฟ้า,บีทีเอส,BTS,อนาคต,สายสีฟ้า,Light Blue Line,มักกะสัน,Makkasan,13.75214600,100.56110000,กรุงเทพมหานคร,BANGKOK,ราชเทวี,RATCHATHEWI,มักกะสัน,MAKKASAN
51,96,3,รถไฟฟ้า,เอ็มอาร์ที,MRT,ปัจจุบัน,สายสีน้ำเงิน,Blue Line,คลองเตย,Khlong Toei,13.72220100,100.55422300,กรุงเทพมหานคร,BANGKOK,คลองเตย,KHLONG TOEI,คลองเตย,KHLONG TOEI
39,278,10,รถไฟฟ้า,เอ็มอาร์ทีเอ,MRT,อนาคต,สายสีชมพู,Pink Line,มีนบุรี,Min Buri,13.80877400,100.73247100,กรุงเทพมหานคร,BANGKOK,คลองสามวา,KHLONG SAM WA,ทรายกองดินใต้,SAI KONG DIN TAI
122,243,9,รถไฟฟ้า,เอ็มอาร์ทีเอ,MRT,อนาคต,สายสีเหลือง,Yellow Line,วังทองหลาง,วังทองหลาง,13.78117900,100.61809700,กรุงเทพมหานคร,BANGKOK,วังทองหลาง,WANG THONGLANG,คลองเจ้าคุณสิงห์,KHLONG CHAOKHUN SING
207,92,3,รถไฟฟ้า,เอ็มอาร์ที,MRT,ปัจจุบัน,สายสีน้ำเงิน,Blue Line,พระราม-9,Rama 9,13.75656000,100.56505900,กรุงเทพมหานคร,BANGKOK,ห้วยขวาง,HUAI KHWANG,ห้วยขวาง,HUAI KHWANG
81,249,9,รถไฟฟ้า,เอ็มอาร์ทีเอ,MRT,อนาคต,สายสีเหลือง,Yellow Line,ศรีนุช,Si Nut,13.71275300,100.64376700,กรุงเทพมหานคร,BANGKOK,สวนหลวง,SUAN LUANG,อ่อนนุช,ON NUT
10,71,2,รถไฟฟ้า,บีทีเอส,BTS,อนาคต,สายสีลม,Silom Line,บางพรม,บางพรม,13.75259960,100.44593810,กรุงเทพมหานคร,BANGKOK,ตลิ่งชัน,TALING CHAN,บางเชือกหนัง,BANG CHUEAK NANG
229,51,1,รถไฟฟ้า,บีทีเอส,BTS,ปัจจุบัน,สายสุขุมวิท,Sukhumvit Line,เคหะฯ,Kheha,13.56722300,100.60771500,สมุทรปราการ,SAMUT PRAKAN,พระสมุทรเจดีย์,PHRA SAMUT CHEDI,แหลมฟ้าผ่า,LAEM FA PHA
43,167,6,รถไฟฟ้า,เอสอาร์ที,SRT,อนาคต,สายสีแดงอ่อน,Light Red Line,ตลิ่งชัน,ตลิ่งชัน,13.78906600,100.44015800,กรุงเทพมหานคร,BANGKOK,ตลิ่งชัน,TALING CHAN,ฉิมพลี,CHIMPHLI
204,44,1,รถไฟฟ้า,บีทีเอส,BTS,ปัจจุบัน,สายสุขุมวิท,Sukhumvit Line,ปู่เจ้า,Pu Chao,13.63694900,100.59188800,สมุทรปราการ,SAMUT PRAKAN,พระประแดง,PHRA PRADAENG,สำโรงกลาง,SAMRONG KLANG
274,145,4,รถไฟฟ้า,เอ็มอาร์ที,MRT,อนาคต,สายสีม่วง,Purple Line,บางปะกอก,บางปะกอก,13.68132700,100.49348300,กรุงเทพมหานคร,BANGKOK,ราษฎร์บูรณะ,RAT BURANA,บางปะกอก,BANG PAKOK
307,41,1,รถไฟฟ้า,บีทีเอส,BTS,ปัจจุบัน,สายสุขุมวิท,Sukhumvit Line,บางนา,Bang Na,13.66915100,100.60509500,กรุงเทพมหานคร,BANGKOK,บางนา,BANG NA,บางนาใต้,BANG NA TAI
25,231,8,รถไฟฟ้า,เอ็มอาร์ที,MRT,อนาคต,สายสีส้ม,Orange Line,บรรทัดทอง,บรรทัดทอง,13.75524100,100.52613400,กรุงเทพมหานคร,BANGKOK,ราชเทวี,RATCHATHEWI,ทุ่งพญาไท,THUNG PHAYA THAI
311,22,1,รถไฟฟ้า,บีทีเอส,BTS,ปัจจุบัน,สายสุขุมวิท,Sukhumvit Line,สะพานควาย,Saphan Khwai,13.79381600,100.54971900,กรุงเทพมหานคร,BANGKOK,พญาไท,PHAYA THAI,สามเสนใน,SAM SEN NAI
194,245,9,รถไฟฟ้า,เอ็มอาร์ทีเอ,MRT,อนาคต,สายสีเหลือง,Yellow Line,บางกระปิ,Bang Kapi,13.76887274,100.64046380,กรุงเทพมหานคร,BANGKOK,บางกะปิ,BANG KAPI,คลองจั่น,KHLONG CHAN
109,232,8,รถไฟฟ้า,เอ็มอาร์ที,MRT,อนาคต,สายสีส้ม,Orange Line,ดินแดง,Din Daeng,13.76849000,100.55054100,กรุงเทพมหานคร,BANGKOK,พญาไท,PHAYA THAI,สามเสนใน,SAM SEN NAI
110,282,10,รถไฟฟ้า,เอ็มอาร์ทีเอ,MRT,ปัจจุบัน,สายสีชมพู,Pink Line,สามัคคี,Samakkhi,13.88759200,100.51122300,นนทบุรี,NONTHABURI,เมืองนนทบุรี,MUEANG NONTHABURI,ท่าทราย,THA SAI
180,20,1,รถไฟฟ้า,บีทีเอส,BTS,ปัจจุบัน,สายสุขุมวิท,Sukhumvit Line,ห้าแยกลาดพร้าว,Ha Yaek Lat Phrao,13.81659782,100.56199080,กรุงเทพมหานคร,BANGKOK,จตุจักร,CHATUCHAK,จตุจักร,CHATUCHAK
13,213,8,รถไฟฟ้า,เอ็มอาร์ที,MRT,อนาคต,สายสีส้ม,Orange Line,ศรีบูรพา,Sri Burapha,13.76825700,100.65880600,กรุงเทพมหานคร,BANGKOK,บางกะปิ,BANG KAPI,หัวหมาก,HUA MAK
193,300,12,รถไฟฟ้า,บีทีเอส,BTS,ปัจจุบัน,สายสีเทา,Grey Line,ทองหล่อ,Thong Lo,13.72408400,100.57942400,กรุงเทพมหานคร,BANGKOK,วัฒนา,VADHANA,คลองตันเหนือ,KHLONG TAN NUEA
86,272,10,รถไฟฟ้า,เอ็มอาร์ทีเอ,MRT,ปัจจุบัน,สายสีชมพู,Pink Line,คู้บอน,Khu Bon,13.83970800,100.65987500,กรุงเทพมหานคร,BANGKOK,บึงกุ่ม,BUENG KUM,นวลจันทร์,NUAN CHAN
7,129,4,รถไฟฟ้า,เอ็มอาร์ที,MRT,ปัจจุบัน,สายสีม่วง,Purple Line,สามแยกบางใหญ่,Sam Yaek Bang Yai,13.87446700,100.41700900,นนทบุรี,NONTHABURI,บางบัวทอง,BANG BUA THONG,บางรักพัฒนา,BANG RAK PHATTHANA
144,168,6,รถไฟฟ้า,เอสอาร์ที,SRT,อนาคต,สายสีแดงอ่อน,Light Red Line,อนุสาวรีย์ชัยสมรภูมิ,Victory Monument,13.76423000,100.53980200,กรุงเทพมหานคร,BANGKOK,พญาไท,PHAYA THAI,สามเสนใน,SAM SEN NAI
112,81,3,รถไฟฟ้า,เอ็มอาร์ที,MRT,ปัจจุบัน,สายสีน้ำเงิน,Blue Line,บางโพ,Bang Pho,13.80643000,100.52007300,กรุงเทพมหานคร,BANGKOK,บางซื่อ,BANG SUE,บางซื่อ,BANG SUE
49,270,10,รถไฟฟ้า,เอ็มอาร์ทีเอ,MRT,อนาคต,สายสีชมพู,Pink Line,รามอินทรา-31,Ram Inthra 31,13.85647800,100.62938700,กรุงเทพมหานคร,BANGKOK,บางเขน,BANG KHEN,อนุสาวรีย์,ANUSAWARI
74,10,1,รถไฟฟ้า,บีทีเอส,BTS,ปัจจุบัน,สายสุขุมวิท,Sukhumvit Line,สายหยุด,Sai Yut,13.88840100,100.60425800,กรุงเทพมหานคร,BANGKOK,สายไหม,SAI MAI,คลองถนน,KHLONG THANON
55,152,5,รถไฟฟ้า,แอร์พอร์ต-เรล-ลิงค์,Airport-Rail-Link,ปัจจุบัน,แอร์พอร์ต เรล ลิงค์,Airport Rail Link,หัวหมาก,Hua Mak,13.73829100,100.64223900,กรุงเทพมหานคร,BANGKOK,สวนหลวง,PHATTHANAKAN,พัฒนาการ,SUAN LUANG
135,57,2,รถไฟฟ้า,บีทีเอส,BTS,ปัจจุบัน,สายสีลม,Silom Line,สนามกีฬาแห่งชาติ,National Stadium,13.74649400,100.52910700,กรุงเทพมหานคร,BANGKOK,ปทุมวัน,PATHUM WAN,ปทุมวัน,PATHUM WAN
113,291,12,รถไฟฟ้า,บีทีเอส,BTS,ปัจจุบัน,สายสีเทา,Grey Line,เกษตรนวมินทร์,Kaset Nawamin,13.82741700,100.62823200,กรุงเทพมหานคร,BANGKOK,ลาดพร้าว,LAT PHRAO,ลาดพร้าว,LAT PHRAO
197,148,5,รถไฟฟ้า,แอร์พอร์ต-เรล-ลิงค์,Airport-Rail-Link,ปัจจุบัน,แอร์พอร์ต เรล ลิงค์,Airport Rail Link,พญาไท,Phaya Thai,13.75672923,100.53492140,กรุงเทพมหานคร,BANGKOK,ราชเทวี,RATCHATHEWI,ทุ่งพญาไท,THUNG PHAYA THAI
206,33,1,รถไฟฟ้า,บีทีเอส,BTS,ปัจจุบัน,สายสุขุมวิท,Sukhumvit Line,พร้อมพงษ์,Phrom Phong,13.73045800,100.56974100,กรุงเทพมหานคร,BANGKOK,คลองเตย,KHLONG TOEI,คลองตัน,KHLONG TAN
82,198,7,รถไฟฟ้า,เอสอาร์ที,SRT,อนาคต,สายสีแดงเข้ม,Dark Red Line,หัวลำโพง,Hua Lamphong,13.74241200,100.51685900,กรุงเทพมหานคร,BANGKOK,ปทุมวัน,PATHUM WAN,รองเมือง,RONG MUEANG
140,214,8,รถไฟฟ้า,เอ็มอาร์ที,MRT,อนาคต,สายสีส้ม,Orange Line,คลองบ้านม้า,Khlong Ban Ma,13.77373600,100.66740400,กรุงเทพมหานคร,BANGKOK,สะพานสูง,SAPHAN SUNG,สะพานสูง,SAPHAN SUNG
147,203,7,รถไฟฟ้า,เอสอาร์ที,SRT,ปัจจุบัน,สายสีแดงเข้ม,Dark Red Line,ทุ่งสองห้อง,Thung Song Hong,13.86332000,100.56943600,กรุงเทพมหานคร,BANGKOK,หลักสี่,LAK SI,ทุ่งสองห้อง,THUNG SONG HONG
26,307,12,รถไฟฟ้า,บีทีเอส,BTS,ปัจจุบัน,สายสีเทา,Grey Line,นราธิวาส,Narathiwat,13.70111200,100.54217600,กรุงเทพมหานคร,BANGKOK,ยานนาวา,YAN NAWA,ช่องนนทรี,CHONG NONSI
4,124,4,รถไฟฟ้า,เอ็มอาร์ที,MRT,ปัจจุบัน,สายสีม่วง,Purple Line,สะพานพระนั่งเกล้า,Phra Nangklao Bridge,13.87048100,100.47917700,นนทบุรี,NONTHABURI,เมืองนนทบุรี,MUEANG NONTHABURI,บางกระสอ,BANG KRASO
265,130,4,รถไฟฟ้า,เอ็มอาร์ที,MRT,ปัจจุบัน,สายสีม่วง,Purple Line,ตลาดบางใหญ่,Talad Bang Yai,13.88184900,100.40934900,นนทบุรี,NONTHABURI,บางบัวทอง,BANG BUA THONG,บางรักพัฒนา,BANG RAK PHATTHANA
19,125,4,รถไฟฟ้า,เอ็มอาร์ที,MRT,ปัจจุบัน,สายสีม่วง,Purple Line,ไทรม้า,Sai Ma,13.87012100,100.46928700,นนทบุรี,NONTHABURI,เมืองนนทบุรี,MUEANG NONTHABURI,บางรักน้อย,BANG RAK NOI
54,215,8,รถไฟฟ้า,เอ็มอาร์ที,MRT,อนาคต,สายสีส้ม,Orange Line,สัมมากร,Sammakon,13.78059600,100.67986800,กรุงเทพมหานคร,BANGKOK,สะพานสูง,SAPHAN SUNG,สะพานสูง,SAPHAN SUNG
306,34,1,รถไฟฟ้า,บีทีเอส,BTS,ปัจจุบัน,สายสุขุมวิท,Sukhumvit Line,ทองหล่อ,Thong Lo,13.72424600,100.57855500,กรุงเทพมหานคร,BANGKOK,วัฒนา,VADHANA,คลองตันเหนือ,KHLONG TAN NUEA
97,280,10,รถไฟฟ้า,เอ็มอาร์ทีเอ,MRT,ปัจจุบัน,สายสีชมพู,Pink Line,แคราย,Khae Rai,13.86193800,100.52089900,นนทบุรี,NONTHABURI,เมืองนนทบุรี,MUEANG NONTHABURI,บางกระสอ,BANG KRASO
37,13,1,รถไฟฟ้า,บีทีเอส,BTS,ปัจจุบัน,สายสุขุมวิท,Sukhumvit Line,กรมทหารราบที่-11,11th Infantry Regiment,13.86786000,100.59214000,กรุงเทพมหานคร,BANGKOK,บางเขน,BANG KHEN,อนุสาวรีย์,ANUSAWARI
20,52,1,รถไฟฟ้า,บีทีเอส,BTS,ปัจจุบัน,สายสุขุมวิท,Sukhumvit Line,สว่างคนิวาส,Sawangkhaniwat,13.55304700,100.61445700,สมุทรปราการ,SAMUT PRAKAN,เมืองสมุทรปราการ,MUEANG SAMUT PRAKAN,บางปูใหม่,BANG PU MAI
106,53,1,รถไฟฟ้า,บีทีเอส,BTS,ปัจจุบัน,สายสุขุมวิท,Sukhumvit Line,เมืองโบราณ,Mueang Boran,13.53821300,100.62229900,สมุทรปราการ,SAMUT PRAKAN,เมืองสมุทรปราการ,MUEANG SAMUT PRAKAN,บางปูใหม่,BANG PU MAI
145,70,2,รถไฟฟ้า,บีทีเอส,BTS,อนาคต,สายสีลม,Silom Line,บางแวก,บางแวก,13.73778010,100.44752600,กรุงเทพมหานคร,BANGKOK,ตลิ่งชัน,TALING CHAN,บางเชือกหนัง,BANG CHUEAK NANG
47,45,1,รถไฟฟ้า,บีทีเอส,BTS,ปัจจุบัน,สายสุขุมวิท,Sukhumvit Line,ช้างเอราวัณ,Chang Erawan,13.62329800,100.58942800,สมุทรปราการ,SAMUT PRAKAN,เมืองสมุทรปราการ,MUEANG SAMUT PRAKAN,บางด้วน,BANG DUAN
125,48,1,รถไฟฟ้า,บีทีเอส,BTS,ปัจจุบัน,สายสุขุมวิท,Sukhumvit Line,ศรีนครินทร์,Srinagarindra,13.59211000,100.60882300,สมุทรปราการ,SAMUT PRAKAN,เมืองสมุทรปราการ,MUEANG SAMUT PRAKAN,บางเมือง,BANG MUEANG
27,229,8,รถไฟฟ้า,เอ็มอาร์ที,MRT,อนาคต,สายสีส้ม,Orange Line,ศิริราช,Siriraj,13.76067200,100.48389900,กรุงเทพมหานคร,BANGKOK,บางกอกน้อย,BANGKOK NOI,ศิริราช,SIRIRAT
294,77,3,รถไฟฟ้า,เอ็มอาร์ที,MRT,ปัจจุบัน,สายสีน้ำเงิน,Blue Line,บางยี่ขัน,Bang Yi Khan,13.77553500,100.48380400,กรุงเทพมหานคร,BANGKOK,บางพลัด,BANG PHLAT,บางบำหรุ,BANG BAMRU
92,120,4,รถไฟฟ้า,เอ็มอาร์ที,MRT,ปัจจุบัน,สายสีม่วง,Purple Line,กระทรวงสาธารณสุข,Ministry of Public Health,13.84898860,100.51502540,นนทบุรี,NONTHABURI,เมืองนนทบุรี,MUEANG NONTHABURI,ตลาดขวัญ,TALAT KHWAN
56,165,6,รถไฟฟ้า,เอสอาร์ที,SRT,อนาคต,สายสีแดงอ่อน,Light Red Line,ศาลาธรรมสพน์,Sala Thammasop,13.80100600,100.37078500,กรุงเทพมหานคร,BANGKOK,ทวีวัฒนา,THAWI WATTHANA,ศาลาธรรมสพน์,SALA THAMMASOP
230,38,1,รถไฟฟ้า,บีทีเอส,BTS,ปัจจุบัน,สายสุขุมวิท,Sukhumvit Line,บางจาก,Bang Chak,13.69691600,100.60527100,กรุงเทพมหานคร,BANGKOK,พระโขนง,PHRA KHANONG,บางจาก,BANG CHAK
268,290,12,รถไฟฟ้า,บีทีเอส,BTS,ปัจจุบัน,สายสีเทา,Grey Line,นวลจันทร์,Nuan Chan,13.84059000,100.63427600,กรุงเทพมหานคร,BANGKOK,บึงกุ่ม,BUENG KUM,นวลจันทร์,NUAN CHAN
214,76,3,รถไฟฟ้า,เอ็มอาร์ที,MRT,ปัจจุบัน,สายสีน้ำเงิน,Blue Line,บางขุนนนท์,Bang Khun Non,13.76262971,100.47268620,กรุงเทพมหานคร,BANGKOK,บางกอกน้อย,BANGKOK NOI,บางขุนนนท์,BANG KHUN NON
171,42,1,รถไฟฟ้า,บีทีเอส,BTS,ปัจจุบัน,สายสุขุมวิท,Sukhumvit Line,แบริ่ง,Bearing,13.65829500,100.60064300,สมุทรปราการ,SAMUT PRAKAN,เมืองสมุทรปราการ,MUEANG SAMUT PRAKAN,สำโรงเหนือ,SAMRONG NUEA
2,174,6,รถไฟฟ้า,เอสอาร์ที,SRT,อนาคต,สายสีแดงอ่อน,Light Red Line,ราชปรารภ,Ratchaprarop,13.75497560,100.54217580,กรุงเทพมหานคร,BANGKOK,ราชเทวี,RATCHATHEWI,ถนนพญาไท,THANON PHAYA THAI
167,207,7,รถไฟฟ้า,เอสอาร์ที,SRT,ปัจจุบัน,สายสีแดงเข้ม,Dark Red Line,หลักหก,Lak Hok,13.96611600,100.60532200,ปทุมธานี,PATHUM THANI,ลำลูกกา,LAM LUK KA,คูคต,KHU KHOT
131,283,10,รถไฟฟ้า,เอ็มอาร์ทีเอ,MRT,ปัจจุบัน,สายสีชมพู,Pink Line,ชลประทาน,Royal Irrigation Department,13.89869500,100.50703000,นนทบุรี,NONTHABURI,ปากเกร็ด,PAK KRET,บางตลาด,BANG TALAT
315,142,4,รถไฟฟ้า,เอ็มอาร์ที,MRT,อนาคต,สายสีม่วง,Purple Line,มไหสวรรย์,มไหสวรรย์,13.70568100,100.48598400,กรุงเทพมหานคร,BANGKOK,ธนบุรี,THON BURI,สำเหร่,SAMRE
316,123,4,รถไฟฟ้า,เอ็มอาร์ที,MRT,ปัจจุบัน,สายสีม่วง,Purple Line,แยกนนทบุรี-1,Yaek Nonthaburi 1,13.86636700,100.49336000,นนทบุรี,NONTHABURI,เมืองนนทบุรี,MUEANG NONTHABURI,บางกระสอ,BANG KRASO
212,261,10,รถไฟฟ้า,เอ็มอาร์ทีเอ,MRT,ปัจจุบัน,สายสีชมพู,Pink Line,เลี่ยงเมืองปากเกร็ด,Pak Kret Bypass,13.90596100,100.52083500,นนทบุรี,NONTHABURI,ปากเกร็ด,PAK KRET,บางพูด,BANG PHUT
120,242,9,รถไฟฟ้า,เอ็มอาร์ทีเอ,MRT,อนาคต,สายสีเหลือง,Yellow Line,ฉลองรัช,ฉลองรัช,13.78529700,100.61075200,กรุงเทพมหานคร,BANGKOK,วังทองหลาง,WANG THONGLANG,คลองเจ้าคุณสิงห์,KHLONG CHAOKHUN SING
31,171,6,รถไฟฟ้า,เอสอาร์ที,SRT,อนาคต,สายสีแดงอ่อน,Light Red Line,สามเสน,Sam Sen,13.77849200,100.50813500,กรุงเทพมหานคร,BANGKOK,ดุสิต,DUSIT,วชิรพยาบาล,WACHIRA PHAYABAN
252,122,4,รถไฟฟ้า,เอ็มอาร์ที,MRT,ปัจจุบัน,สายสีม่วง,Purple Line,บางกระสอ,Bang Krasor,13.86139000,100.50561700,นนทบุรี,NONTHABURI,เมืองนนทบุรี,MUEANG NONTHABURI,ตลาดขวัญ,TALAT KHWAN
24,36,1,รถไฟฟ้า,บีทีเอส,BTS,ปัจจุบัน,สายสุขุมวิท,Sukhumvit Line,พระโขนง,Phra Khanong,13.71519700,100.59126800,กรุงเทพมหานคร,BANGKOK,วัฒนา,VADHANA,พระโขนงเหนือ,PHRA KHANONG NUEA
129,263,10,รถไฟฟ้า,เอ็มอาร์ทีเอ,MRT,ปัจจุบัน,สายสีชมพู,Pink Line,ศรีรัช,Si Rat,13.89776900,100.54729800,นนทบุรี,NONTHABURI,ปากเกร็ด,PAK KRET,บางตลาด,BANG TALAT
300,4,1,รถไฟฟ้า,บีทีเอส,BTS,อนาคต,สายสุขุมวิท,Sukhumvit Line,คลองสาม,Khlong Sam,13.93215600,100.66188900,กรุงเทพมหานคร,BANGKOK,สายไหม,SAI MAI,สายไหม,SAI MAI
184,138,4,รถไฟฟ้า,เอ็มอาร์ที,MRT,อนาคต,สายสีม่วง,Purple Line,วังบูรพา,วังบูรพา,13.74756800,100.50333200,กรุงเทพมหานคร,BANGKOK,พระนคร,PHRA NAKHON,วัดราชบพิธ,WAT RATCHABOPHIT
61,169,6,รถไฟฟ้า,เอสอาร์ที,SRT,อนาคต,สายสีแดงอ่อน,Light Red Line,ราชวิถี,ราชวิถี,13.77000636,100.52750630,กรุงเทพมหานคร,BANGKOK,ราชเทวี,RATCHATHEWI,ทุ่งพญาไท,THUNG PHAYA THAI
179,31,1,รถไฟฟ้า,บีทีเอส,BTS,ปัจจุบัน,สายสุขุมวิท,Sukhumvit Line,นานา,Nana,13.74053700,100.55539300,กรุงเทพมหานคร,BANGKOK,วัฒนา,VADHANA,คลองเตยเหนือ,KHLONG TOEI NUEA
1,16,1,รถไฟฟ้า,บีทีเอส,BTS,ปัจจุบัน,สายสุขุมวิท,Sukhumvit Line,มหาวิทยาลัยเกษตรศาสตร์,Kasetsart University,13.84209100,100.57699700,กรุงเทพมหานคร,BANGKOK,จตุจักร,CHATUCHAK,ลาดยาว,LAT YAO
187,69,2,รถไฟฟ้า,บีทีเอส,BTS,ปัจจุบัน,สายสีลม,Silom Line,บางหว้า,Bang Wa,13.72049600,100.45813300,กรุงเทพมหานคร,BANGKOK,ภาษีเจริญ,PHASI CHAROEN,บางหว้า,BANG WA
17,6,1,รถไฟฟ้า,บีทีเอส,BTS,ปัจจุบัน,สายสุขุมวิท,Sukhumvit Line,แยก-คปอ.,Yaek Kor Por Aor,13.92494200,100.62584000,กรุงเทพมหานคร,BANGKOK,สายไหม,SAI MAI,คลองถนน,KHLONG THANON
104,100,3,รถไฟฟ้า,เอ็มอาร์ที,MRT,ปัจจุบัน,สายสีน้ำเงิน,Blue Line,หัวลำโพง,Hua Lamphong,13.73787600,100.51615400,กรุงเทพมหานคร,BANGKOK,ปทุมวัน,PATHUM WAN,รองเมือง,RONG MUEANG
77,17,1,รถไฟฟ้า,บีทีเอส,BTS,ปัจจุบัน,สายสุขุมวิท,Sukhumvit Line,เสนานิคม,Sena Nikhom,13.83566400,100.57322800,กรุงเทพมหานคร,BANGKOK,จตุจักร,CHATUCHAK,ลาดยาว,LAT YAO
283,289,12,รถไฟฟ้า,บีทีเอส,BTS,ปัจจุบัน,สายสีเทา,Grey Line,วัชรพล,Watcharaphon,13.85092700,100.63967800,กรุงเทพมหานคร,BANGKOK,บึงกุ่ม,BUENG KUM,นวลจันทร์,NUAN CHAN
218,135,4,รถไฟฟ้า,เอ็มอาร์ที,MRT,อนาคต,สายสีม่วง,Purple Line,หอสมุดแห่งชาติ,หอสมุดแห่งชาติ,13.77199300,100.50540200,กรุงเทพมหานคร,BANGKOK,ดุสิต,DUSIT,วชิรพยาบาล,WACHIRA PHAYABAN
258,244,9,รถไฟฟ้า,เอ็มอาร์ทีเอ,MRT,อนาคต,สายสีเหลือง,Yellow Line,ลาดพร้าว-101,Lat Phrao 101,13.77515600,100.62897070,กรุงเทพมหานคร,BANGKOK,วังทองหลาง,WANG THONGLANG,คลองเจ้าคุณสิงห์,KHLONG CHAOKHUN SING
11,136,4,รถไฟฟ้า,เอ็มอาร์ที,MRT,อนาคต,สายสีม่วง,Purple Line,บางขุนพรหม,บางขุนพรหม,13.76351700,100.49905400,กรุงเทพมหานคร,BANGKOK,พระนคร,PHRA NAKHON,บวรนิเวศ,BOWON NIWET
119,240,9,รถไฟฟ้า,เอ็มอาร์ทีเอ,MRT,อนาคต,สายสีเหลือง,Yellow Line,ภาวนา,Phawana,13.80072670,100.58313840,กรุงเทพมหานคร,BANGKOK,ห้วยขวาง,HUAI KHWANG,สามเสนนอก,SAM SEN NOK
116,49,1,รถไฟฟ้า,บีทีเอส,BTS,ปัจจุบัน,สายสุขุมวิท,Sukhumvit Line,แพรกษา,Phraek Sa,13.58398800,100.60770600,สมุทรปราการ,SAMUT PRAKAN,พระสมุทรเจดีย์,PHRA SAMUT CHEDI,ในคลองบางปลากด,NAI KHLONG BANG PLA KOT
90,65,2,รถไฟฟ้า,บีทีเอส,BTS,ปัจจุบัน,สายสีลม,Silom Line,วงเวียนใหญ่,Wongwian Yai,13.72108700,100.49520500,กรุงเทพมหานคร,BANGKOK,ธนบุรี,THON BURI,บางยี่เรือ,BANG YI RUEA
201,164,6,รถไฟฟ้า,เอสอาร์ที,SRT,อนาคต,สายสีแดงอ่อน,Light Red Line,บ้านฉิมพลี,Ban Chimphli,13.79914000,100.42020200,กรุงเทพมหานคร,BANGKOK,ตลิ่งชัน,TALING CHAN,ฉิมพลี,CHIMPHLI
219,178,7,รถไฟฟ้า,เอสอาร์ที,SRT,อนาคต,สายสีแดงเข้ม,Dark Red Line,จอมทอง,Chom Thong,13.70415361,100.46861540,กรุงเทพมหานคร,BANGKOK,จอมทอง,CHOM THONG,บางค้อ,BANG KHO
237,157,6,รถไฟฟ้า,เอสอาร์ที,SRT,อนาคต,สายสีแดงอ่อน,Light Red Line,หัวหมาก,Hua Mak,13.73813300,100.64221600,กรุงเทพมหานคร,BANGKOK,สวนหลวง,PHATTHANAKAN,พัฒนาการ,SUAN LUANG
142,154,5,รถไฟฟ้า,แอร์พอร์ต-เรล-ลิงค์,Airport-Rail-Link,ปัจจุบัน,แอร์พอร์ต เรล ลิงค์,Airport Rail Link,ท่าอากาศยานสุวรรณภูมิ,Suvarnabhumi Airport,13.70478700,100.75419300,สมุทรปราการ,SAMUT PRAKAN,บางพลี,BANG PHLI,ราชาเทวะ,RACHA THEWA
159,27,1,รถไฟฟ้า,บีทีเอส,BTS,ปัจจุบัน,สายสุขุมวิท,Sukhumvit Line,ราชเทวี,Ratchathewi,13.75186100,100.53157000,กรุงเทพมหานคร,BANGKOK,ราชเทวี,RATCHATHEWI,ถนนเพชรบุรี,THANON PHET BURI
76,187,7,รถไฟฟ้า,เอสอาร์ที,SRT,อนาคต,สายสีแดงเข้ม,Dark Red Line,ตากสิน,Taksin,13.71180400,100.47231400,กรุงเทพมหานคร,BANGKOK,จอมทอง,CHOM THONG,บางค้อ,BANG KHO
88,131,4,รถไฟฟ้า,เอ็มอาร์ที,MRT,ปัจจุบัน,สายสีม่วง,Purple Line,คลองบางไผ่,Khlong Bang Phai,13.89813400,100.40787900,นนทบุรี,NONTHABURI,บางบัวทอง,BANG BUA THONG,บางรักพัฒนา,BANG RAK PHATTHANA
75,193,7,รถไฟฟ้า,เอสอาร์ที,SRT,อนาคต,สายสีแดงเข้ม,Dark Red Line,บ้านขอม,บ้านขอม,13.56745700,100.30347700,สมุทรสาคร,Samut Sakhon,เมืองสมุทรสาคร,Mueang Samut Sakhon,โคกขาม,Khok Kham
298,7,1,รถไฟฟ้า,บีทีเอส,BTS,ปัจจุบัน,สายสุขุมวิท,Sukhumvit Line,พิพิธภัณฑ์กองทัพอากาศ,Royal Thai Air Force Museum,13.91782900,100.62163700,กรุงเทพมหานคร,BANGKOK,สายไหม,SAI MAI,คลองถนน,KHLONG THANON
317,161,6,รถไฟฟ้า,เอสอาร์ที,SRT,ปัจจุบัน,สายสีแดงอ่อน,Light Red Line,บางซ่อน,Bang Son,13.82182900,100.53469800,กรุงเทพมหานคร,BANGKOK,บางซื่อ,BANG SUE,บางซื่อ,BANG SUE
173,179,7,รถไฟฟ้า,เอสอาร์ที,SRT,อนาคต,สายสีแดงเข้ม,Dark Red Line,วัดไทร,Wat Sai,13.69435900,100.45921700,กรุงเทพมหานคร,BANGKOK,จอมทอง,CHOM THONG,บางขุนเทียน,BANG KHUN THIAN
151,285,11,รถไฟฟ้า,บีทีเอส,BTS,อนาคต,สายสีทอง,Gold line,สถานีประชาธิปก,สถานีประชาธิปก,13.73343080,100.49896060,กรุงเทพมหานคร,BANGKOK,คลองสาน,KHLONG SAN,สมเด็จเจ้าพระยา,SOMDET CHAOPHRAYA
134,302,12,รถไฟฟ้า,บีทีเอส,BTS,อนาคต,สายสีเทา,Grey Line,พระราม-4,Rama IV,13.71349100,100.58000400,กรุงเทพมหานคร,BANGKOK,คลองเตย,KHLONG TOEI,คลองเตย,KHLONG TOEI
289,82,3,รถไฟฟ้า,เอ็มอาร์ที,MRT,ปัจจุบัน,สายสีน้ำเงิน,Blue Line,เตาปูน,Tao Poon,13.80636100,100.53018800,กรุงเทพมหานคร,BANGKOK,บางซื่อ,BANG SUE,บางซื่อ,BANG SUE
253,32,1,รถไฟฟ้า,บีทีเอส,BTS,ปัจจุบัน,สายสุขุมวิท,Sukhumvit Line,อโศก,Asok,13.73704500,100.56034400,กรุงเทพมหานคร,BANGKOK,คลองเตย,KHLONG TOEI,คลองเตย,KHLONG TOEI
35,177,6,รถไฟฟ้า,เอสอาร์ที,SRT,อนาคต,สายสีแดงอ่อน,Light Red Line,บางขุนนนท์,บางขุนนนท์,13.76282180,100.47322580,กรุงเทพมหานคร,BANGKOK,บางกอกน้อย,BANGKOK NOI,บางขุนนนท์,BANG KHUN NON
33,292,12,รถไฟฟ้า,บีทีเอส,BTS,ปัจจุบัน,สายสีเทา,Grey Line,โยธินพัฒนา,Yothin Phatthana,13.81624300,100.62264700,กรุงเทพมหานคร,BANGKOK,ลาดพร้าว,LAT PHRAO,ลาดพร้าว,LAT PHRAO
48,183,7,รถไฟฟ้า,เอสอาร์ที,SRT,อนาคต,สายสีแดงเข้ม,Dark Red Line,รางโพธิ์,Rang Pho,13.64358500,100.40327000,กรุงเทพมหานคร,BANGKOK,บางบอน,BANG BON,บางบอนเหนือ,BANG BON NUEA
290,248,9,รถไฟฟ้า,เอ็มอาร์ทีเอ,MRT,อนาคต,สายสีเหลือง,Yellow Line,พัฒนาการ,Phatthanakan,13.73913200,100.64208200,กรุงเทพมหานคร,BANGKOK,บางกะปิ,BANG KAPI,หัวหมาก,HUA MAK
302,132,4,รถไฟฟ้า,เอ็มอาร์ที,MRT,อนาคต,สายสีม่วง,Purple Line,เกียกกาย,เกียกกาย,13.79685700,100.52098700,กรุงเทพมหานคร,BANGKOK,ดุสิต,DUSIT,ถนนนครไชยศรี,THANON NAKHON CHAISI
210,201,7,รถไฟฟ้า,เอสอาร์ที,SRT,ปัจจุบัน,สายสีแดงเข้ม,Dark Red Line,วัดเสมียนนารี,Wat Samian Nari,13.83987000,100.55678000,กรุงเทพมหานคร,BANGKOK,จตุจักร,CHATUCHAK,ลาดยาว,LAT YAO
273,281,10,รถไฟฟ้า,เอ็มอาร์ทีเอ,MRT,ปัจจุบัน,สายสีชมพู,Pink Line,สนามบินน้ำ,Sanambin Nam,13.87604400,100.51554600,นนทบุรี,NONTHABURI,เมืองนนทบุรี,MUEANG NONTHABURI,ท่าทราย,THA SAI
223,119,4,รถไฟฟ้า,เอ็มอาร์ที,MRT,ปัจจุบัน,สายสีม่วง,Purple Line,แยกติวานนท์,Yaek Tiwanon,13.84189800,100.51215700,นนทบุรี,NONTHABURI,เมืองนนทบุรี,MUEANG NONTHABURI,บางเขน,BANG KHEN
257,62,2,รถไฟฟ้า,บีทีเอส,BTS,ปัจจุบัน,สายสีลม,Silom Line,สุรศักดิ์,Surasak,13.71926200,100.52150800,กรุงเทพมหานคร,BANGKOK,บางรัก,BANG RAK,สีลม,SI LOM
220,15,1,รถไฟฟ้า,บีทีเอส,BTS,ปัจจุบัน,สายสุขุมวิท,Sukhumvit Line,กรมป่าไม้,Royal Forest Department,13.85105100,100.58225100,กรุงเทพมหานคร,BANGKOK,จตุจักร,CHATUCHAK,ลาดยาว,LAT YAO
137,162,6,รถไฟฟ้า,เอสอาร์ที,SRT,อนาคต,สายสีแดงอ่อน,Light Red Line,บางบำหรุ,Bang Bamru,13.79203500,100.47730000,กรุงเทพมหานคร,BANGKOK,บางพลัด,BANG PHLAT,บางบำหรุ,BANG BAMRU
278,108,3,รถไฟฟ้า,เอ็มอาร์ที,MRT,ปัจจุบัน,สายสีน้ำเงิน,Blue Line,เพชรเกษม-48,Phetkasem 48,13.71546400,100.44547700,กรุงเทพมหานคร,BANGKOK,จอมทอง,CHOM THONG,บางขุนเทียน,BANG KHUN THIAN
287,137,4,รถไฟฟ้า,เอ็มอาร์ที,MRT,อนาคต,สายสีม่วง,Purple Line,ผ่านฟ้าลีลาศ,ผ่านฟ้าลีลาศ,13.75684700,100.50466900,กรุงเทพมหานคร,BANGKOK,ป้อมปราบศัตรูพ่าย,POM PRAP SATTRU PHAI,บ้านบาตร,BAN BAT
132,149,5,รถไฟฟ้า,แอร์พอร์ต-เรล-ลิงค์,Airport-Rail-Link,ปัจจุบัน,แอร์พอร์ต เรล ลิงค์,Airport Rail Link,ราชปรารถ,Ratchaprarop,13.75508542,100.54222040,กรุงเทพมหานคร,BANGKOK,ราชเทวี,RATCHATHEWI,ถนนพญาไท,THANON PHAYA THAI
203,11,1,รถไฟฟ้า,บีทีเอส,BTS,ปัจจุบัน,สายสุขุมวิท,Sukhumvit Line,พหลโยธิน-59,Phahonyothin 59,13.88258700,100.60084000,กรุงเทพมหานคร,BANGKOK,บางเขน,BANG KHEN,อนุสาวรีย์,ANUSAWARI
245,143,4,รถไฟฟ้า,เอ็มอาร์ที,MRT,อนาคต,สายสีม่วง,Purple Line,จอมทอง,จอมทอง,13.69440900,100.48208100,กรุงเทพมหานคร,BANGKOK,จอมทอง,CHOM THONG,จอมทอง,CHOM THONG
114,47,1,รถไฟฟ้า,บีทีเอส,BTS,ปัจจุบัน,สายสุขุมวิท,Sukhumvit Line,ปากน้ำ,Pak Nam,13.60214000,100.59705900,สมุทรปราการ,SAMUT PRAKAN,พระสมุทรเจดีย์,PHRA SAMUT CHEDI,ปากคลองบางปลากด,PAK KHLONG BANG PLA KOT
226,186,7,รถไฟฟ้า,เอสอาร์ที,SRT,อนาคต,สายสีแดงเข้ม,Dark Red Line,ตลาดพลู,Talat Phlu,13.72066200,100.47775600,กรุงเทพมหานคร,BANGKOK,ธนบุรี,THON BURI,ตลาดพลู,TALAT PHLU
80,126,4,รถไฟฟ้า,เอ็มอาร์ที,MRT,ปัจจุบัน,สายสีม่วง,Purple Line,บางรักน้อย-ท่าอิฐ,Bang Rak Noi Tha It,13.87322100,100.45972100,นนทบุรี,NONTHABURI,เมืองนนทบุรี,MUEANG NONTHABURI,ไทรม้า,SAI MA
94,89,3,รถไฟฟ้า,เอ็มอาร์ที,MRT,ปัจจุบัน,สายสีน้ำเงิน,Blue Line,สุทธิสาร,Sutthisan,13.78903000,100.57411300,กรุงเทพมหานคร,BANGKOK,ห้วยขวาง,HUAI KHWANG,ห้วยขวาง,HUAI KHWANG
68,25,1,รถไฟฟ้า,บีทีเอส,BTS,ปัจจุบัน,สายสุขุมวิท,Sukhumvit Line,อนุสาวรีย์ชัยสมรภูมิ,Victory Monument,13.76276700,100.53709100,กรุงเทพมหานคร,BANGKOK,พญาไท,PHAYA THAI,สามเสนใน,SAM SEN NAI
310,173,6,รถไฟฟ้า,เอสอาร์ที,SRT,อนาคต,สายสีแดงอ่อน,Light Red Line,บางบำหรุ,Bang Bamru,13.79102400,100.47497300,กรุงเทพมหานคร,BANGKOK,บางพลัด,BANG PHLAT,บางบำหรุ,BANG BAMRU
166,150,5,รถไฟฟ้า,แอร์พอร์ต-เรล-ลิงค์,Airport-Rail-Link,ปัจจุบัน,แอร์พอร์ต เรล ลิงค์,Airport Rail Link,มักกะสัน,Makkasan,13.75090530,100.56089680,กรุงเทพมหานคร,BANGKOK,ราชเทวี,RATCHATHEWI,มักกะสัน,MAKKASAN
217,58,2,รถไฟฟ้า,บีทีเอส,BTS,ปัจจุบัน,สายสีลม,Silom Line,สยาม,Siam,13.74556400,100.53429800,กรุงเทพมหานคร,BANGKOK,ปทุมวัน,PATHUM WAN,ปทุมวัน,PATHUM WAN
165,127,4,รถไฟฟ้า,เอ็มอาร์ที,MRT,ปัจจุบัน,สายสีม่วง,Purple Line,บางรักใหญ่,Bang Rak Yai,13.87668100,100.44685000,นนทบุรี,NONTHABURI,เมืองนนทบุรี,MUEANG NONTHABURI,ไทรม้า,SAI MA
58,306,12,รถไฟฟ้า,บีทีเอส,BTS,ปัจจุบัน,สายสีเทา,Grey Line,พระราม-3,Rama III,13.70825100,100.54901200,กรุงเทพมหานคร,BANGKOK,ยานนาวา,YAN NAWA,ช่องนนทรี,CHONG NONSI
232,86,3,รถไฟฟ้า,เอ็มอาร์ที,MRT,ปัจจุบัน,สายสีน้ำเงิน,Blue Line,พหลโยธิน,Phahon Yothin,13.81340600,100.56049000,กรุงเทพมหานคร,BANGKOK,จตุจักร,CHATUCHAK,จตุจักร,CHATUCHAK
276,196,7,รถไฟฟ้า,เอสอาร์ที,SRT,อนาคต,สายสีแดงเข้ม,Dark Red Line,สามเสน,Sam Sen,13.77925000,100.52987300,กรุงเทพมหานคร,BANGKOK,ดุสิต,DUSIT,ถนนนครไชยศรี,THANON NAKHON CHAISI
176,219,8,รถไฟฟ้า,เอ็มอาร์ที,MRT,อนาคต,สายสีส้ม,Orange Line,เคหะรามคำแหง,Keha Ramkhamhaeng,13.80487700,100.72568700,กรุงเทพมหานคร,BANGKOK,คลองสามวา,KHLONG SAM WA,ทรายกองดินใต้,SAI KONG DIN TAI
208,8,1,รถไฟฟ้า,บีทีเอส,BTS,ปัจจุบัน,สายสุขุมวิท,Sukhumvit Line,รพ.ภูมิพล,Bhumibol Adulyadej Hospital,13.91117200,100.61770200,กรุงเทพมหานคร,BANGKOK,สายไหม,SAI MAI,คลองถนน,KHLONG THANON
249,274,10,รถไฟฟ้า,เอ็มอาร์ทีเอ,MRT,อนาคต,สายสีชมพู,Pink Line,นพรัตนราชธานี,Nopparat,13.81545300,100.68619800,กรุงเทพมหานคร,BANGKOK,คันนายาว,KHAN NA YAO,คันนายาว,KHAN NA YAO
148,158,6,รถไฟฟ้า,เอสอาร์ที,SRT,อนาคต,สายสีแดงอ่อน,Light Red Line,พญาไท,Phaya Thai,13.75675000,100.53432800,กรุงเทพมหานคร,BANGKOK,ราชเทวี,RATCHATHEWI,ทุ่งพญาไท,THUNG PHAYA THAI
313,12,1,รถไฟฟ้า,บีทีเอส,BTS,ปัจจุบัน,สายสุขุมวิท,Sukhumvit Line,วัดพระศรีมหาธาตุ,Wat Phra Sri Mahathat,13.87366200,100.59568000,กรุงเทพมหานคร,BANGKOK,บางเขน,BANG KHEN,อนุสาวรีย์,ANUSAWARI
181,253,9,รถไฟฟ้า,เอ็มอาร์ทีเอ,MRT,อนาคต,สายสีเหลือง,Yellow Line,ศรีลาซาล,Si La Salle,13.65501800,100.64215000,กรุงเทพมหานคร,BANGKOK,บางนา,BANG NA,บางนาใต้,BANG NA TAI
215,121,4,รถไฟฟ้า,เอ็มอาร์ที,MRT,ปัจจุบัน,สายสีม่วง,Purple Line,ศูนย์ราชการนนทบุรี,Nonthaburi Civic Center,13.85990200,100.51550500,นนทบุรี,NONTHABURI,เมืองนนทบุรี,MUEANG NONTHABURI,ตลาดขวัญ,TALAT KHWAN
139,5,1,รถไฟฟ้า,บีทีเอส,BTS,ปัจจุบัน,สายสุขุมวิท,Sukhumvit Line,คูคต,Khu Khot,13.93250100,100.64445300,กรุงเทพมหานคร,BANGKOK,สายไหม,SAI MAI,สายไหม,SAI MAI
69,309,12,รถไฟฟ้า,บีทีเอส,BTS,ปัจจุบัน,สายสีเทา,Grey Line,สะพานพระราม-9,Rama IX Bridge,13.68512400,100.51937800,กรุงเทพมหานคร,BANGKOK,ยานนาวา,YAN NAWA,บางโพงพาง,BANG PHONGPHANG
224,35,1,รถไฟฟ้า,บีทีเอส,BTS,ปัจจุบัน,สายสุขุมวิท,Sukhumvit Line,เอกมัย,Ekkamai,13.71956200,100.58515000,กรุงเทพมหานคร,BANGKOK,คลองเตย,KHLONG TOEI,คลองเตย,KHLONG TOEI
272,250,9,รถไฟฟ้า,เอ็มอาร์ทีเอ,MRT,อนาคต,สายสีเหลือง,Yellow Line,สุภาพงษ์,สุภาพงษ์,13.69080100,100.64709900,กรุงเทพมหานคร,BANGKOK,ประเวศ,PRAWET,หนองบอน,NONG BON
228,230,8,รถไฟฟ้า,เอ็มอาร์ที,MRT,อนาคต,สายสีส้ม,Orange Line,บางขุนนนท์,Bang Khun Non,13.76242450,100.47318200,กรุงเทพมหานคร,BANGKOK,บางกอกน้อย,BANGKOK NOI,บางขุนนนท์,BANG KHUN NON
172,269,10,รถไฟฟ้า,เอ็มอาร์ทีเอ,MRT,ปัจจุบัน,สายสีชมพู,Pink Line,ลาดปลาเค้า,Lat Pla Khao,13.86305400,100.61719300,กรุงเทพมหานคร,BANGKOK,บางเขน,BANG KHEN,อนุสาวรีย์,ANUSAWARI
192,79,3,รถไฟฟ้า,เอ็มอาร์ที,MRT,ปัจจุบัน,สายสีน้ำเงิน,Blue Line,บางพลัด,Bang Phlat,13.79316020,100.50547490,กรุงเทพมหานคร,BANGKOK,บางพลัด,BANG PHLAT,บางอ้อ,BANG O
260,163,6,รถไฟฟ้า,เอสอาร์ที,SRT,อนาคต,สายสีแดงอ่อน,Light Red Line,ตลิ่งชัน,Taling Chan,13.78920900,100.44026000,กรุงเทพมหานคร,BANGKOK,ตลิ่งชัน,TALING CHAN,ฉิมพลี,CHIMPHLI
285,101,3,รถไฟฟ้า,เอ็มอาร์ที,MRT,ปัจจุบัน,สายสีน้ำเงิน,Blue Line,ท่าพระ,Tha Phra,13.72948600,100.47412600,กรุงเทพมหานคร,BANGKOK,บางกอกใหญ่,BANGKOK YAI,วัดท่าพระ,WAT THA PHRA
23,153,5,รถไฟฟ้า,แอร์พอร์ต-เรล-ลิงค์,Airport-Rail-Link,ปัจจุบัน,แอร์พอร์ต เรล ลิงค์,Airport Rail Link,บ้านทับช้าง,Ban Thap Chang,13.73270800,100.69376700,กรุงเทพมหานคร,BANGKOK,สะพานสูง,SAPHAN SUNG,ทับช้าง,THAP CHANG
162,155,6,รถไฟฟ้า,เอสอาร์ที,SRT,อนาคต,สายสีแดงอ่อน,Light Red Line,ศูนย์วิจัย,Sun Wichai,13.74447400,100.58895200,กรุงเทพมหานคร,BANGKOK,สวนหลวง,SUAN LUANG,สวนหลวง,SUAN LUANG
21,111,3,รถไฟฟ้า,เอ็มอาร์ที,MRT,ปัจจุบัน,สายสีน้ำเงิน,Blue Line,หลักสอง,Lak Song,13.71105200,100.41039700,กรุงเทพมหานคร,BANGKOK,บางแค,BANG KHAE,หลักสอง,LAK SONG
143,303,12,รถไฟฟ้า,บีทีเอส,BTS,อนาคต,สายสีเทา,Grey Line,คลองตัน,Khlong Tan,13.71760700,100.57028300,กรุงเทพมหานคร,BANGKOK,คลองเตย,KHLONG TOEI,คลองเตย,KHLONG TOEI
200,225,8,รถไฟฟ้า,เอ็มอาร์ที,MRT,อนาคต,สายสีส้ม,Orange Line,ยมราช,Yommarat,13.75693600,100.51900400,กรุงเทพมหานคร,BANGKOK,ป้อมปราบศัตรูพ่าย,POM PRAP SATTRU PHAI,วัดโสมนัส,WAT SOMMANAT
178,316,13,รถไฟฟ้า,บีทีเอส,BTS,อนาคต,สายสีฟ้า,Light Blue Line,ลุมพินี,Lumphini,13.72773100,100.54475800,กรุงเทพมหานคร,BANGKOK,สาทร,SATHON,ทุ่งมหาเมฆ,THUNG MAHAMEK
293,297,12,รถไฟฟ้า,บีทีเอส,BTS,อนาคต,สายสีเทา,Grey Line,ศูนย์วิจัย,Sun Wichai,13.74402000,100.58796300,กรุงเทพมหานคร,BANGKOK,สวนหลวง,SUAN LUANG,สวนหลวง,SUAN LUANG
185,14,1,รถไฟฟ้า,บีทีเอส,BTS,ปัจจุบัน,สายสุขุมวิท,Sukhumvit Line,บางบัว,Bang Bua,13.85629700,100.58535100,กรุงเทพมหานคร,BANGKOK,จตุจักร,CHATUCHAK,ลาดยาว,LAT YAO
65,192,7,รถไฟฟ้า,เอสอาร์ที,SRT,อนาคต,สายสีแดงเข้ม,Dark Red Line,คอกควาย,Khok Khwai,13.59016900,100.34368500,สมุทรสาคร,Samut Sakhon,เมืองสมุทรสาคร,Mueang Samut Sakhon,คอกกระบือ,Khok Krabue
79,206,7,รถไฟฟ้า,เอสอาร์ที,SRT,ปัจจุบัน,สายสีแดงเข้ม,Dark Red Line,ดอนเมือง,Don Mueang,13.91417700,100.59773700,กรุงเทพมหานคร,BANGKOK,ดอนเมือง,DON MUEANG,สนามบิน,SANAM BIN
149,239,8,รถไฟฟ้า,เอ็มอาร์ที,MRT,อนาคต,สายสีส้ม,Orange Line,หัวหมาก,Hua Mak,13.76183900,100.63792300,กรุงเทพมหานคร,BANGKOK,บางกะปิ,BANG KAPI,หัวหมาก,HUA MAK
304,64,2,รถไฟฟ้า,บีทีเอส,BTS,ปัจจุบัน,สายสีลม,Silom Line,กรุงธนบุรี,Krung Thonburi,13.72092300,100.50270300,กรุงเทพมหานคร,BANGKOK,คลองสาน,KHLONG SAN,บางลำภูล่าง,BANG LAMPHU LANG
231,205,7,รถไฟฟ้า,เอสอาร์ที,SRT,ปัจจุบัน,สายสีแดงเข้ม,Dark Red Line,การเคหะ,Kan Kheha,13.89898700,100.58924100,กรุงเทพมหานคร,BANGKOK,ดอนเมือง,DON MUEANG,ดอนเมือง,DON MUEANG
251,182,7,รถไฟฟ้า,เอสอาร์ที,SRT,อนาคต,สายสีแดงเข้ม,Dark Red Line,รางสะแก,Rang Sakae,13.65195800,100.41291900,กรุงเทพมหานคร,BANGKOK,บางขุนเทียน,BANG KHUN THIAN,แสมดำ,SAMAE DAM
263,293,12,รถไฟฟ้า,บีทีเอส,BTS,ปัจจุบัน,สายสีเทา,Grey Line,ลาดพร้าว-87,Lat Phrao 87,13.80112700,100.61499500,กรุงเทพมหานคร,BANGKOK,บางกะปิ,BANG KAPI,คลองจั่น,KHLONG CHAN
141,99,3,รถไฟฟ้า,เอ็มอาร์ที,MRT,ปัจจุบัน,สายสีน้ำเงิน,Blue Line,สามย่าน,Sam Yan,13.73255400,100.52949300,กรุงเทพมหานคร,BANGKOK,ปทุมวัน,PATHUM WAN,วังใหม่,WANG MAI
236,55,1,รถไฟฟ้า,บีทีเอส,BTS,อนาคต,สายสุขุมวิท,Sukhumvit Line,บางปู,Bang Pu,13.52150300,100.65500000,สมุทรปราการ,SAMUT PRAKAN,บางพลี,BANG PHLI,บางปลา,BANG PLA
238,268,10,รถไฟฟ้า,เอ็มอาร์ทีเอ,MRT,ปัจจุบัน,สายสีชมพู,Pink Line,วัดพระศรีมหาธาตุ,Wat Phra Si Mahathat,13.87293978,100.59899810,กรุงเทพมหานคร,BANGKOK,บางเขน,BANG KHEN,อนุสาวรีย์,ANUSAWARI
262,166,6,รถไฟฟ้า,เอสอาร์ที,SRT,อนาคต,สายสีแดงอ่อน,Light Red Line,ศาลายา,Sala Ya,13.80263000,100.32442000,นครปฐม,Nakhon Pathom,พุทธมณฑล,Phutthamonthon,ศาลายา,Salaya
183,60,2,รถไฟฟ้า,บีทีเอส,BTS,ปัจจุบัน,สายสีลม,Silom Line,ศาลาแดง,Sala Daeng,13.72846270,100.53412910,กรุงเทพมหานคร,BANGKOK,ปทุมวัน,PATHUM WAN,ปทุมวัน,PATHUM WAN
235,105,3,รถไฟฟ้า,เอ็มอาร์ที,MRT,ปัจจุบัน,สายสีน้ำเงิน,Blue Line,วัดมังกร,Wat Mangkon,13.74167700,100.51068700,กรุงเทพมหานคร,BANGKOK,สัมพันธวงศ์,SAMPHANTHAWONG,สัมพันธวงศ์,SAMPHANTHAWONG
157,264,10,รถไฟฟ้า,เอ็มอาร์ทีเอ,MRT,อนาคต,สายสีชมพู,Pink Line,เมืองทอง-1,Muang Thong 1,13.89424100,100.55734600,กรุงเทพมหานคร,BANGKOK,หลักสี่,LAK SI,ทุ่งสองห้อง,THUNG SONG HONG
233,233,8,รถไฟฟ้า,เอ็มอาร์ที,MRT,อนาคต,สายสีส้ม,Orange Line,ประชาสงเคราะห์,Pracha Songkhro,13.77276564,100.55387610,กรุงเทพมหานคร,BANGKOK,พญาไท,PHAYA THAI,สามเสนใน,SAM SEN NAI
213,236,8,รถไฟฟ้า,เอ็มอาร์ที,MRT,อนาคต,สายสีส้ม,Orange Line,นวศรี,นวศรี,13.76616500,100.60377200,กรุงเทพมหานคร,BANGKOK,วังทองหลาง,WANG THONGLANG,วังทองหลาง,WANG THONGLANG
100,312,13,รถไฟฟ้า,บีทีเอส,BTS,อนาคต,สายสีฟ้า,Light Blue Line,ดินแดง,Din Daeng,13.75825800,100.55414400,กรุงเทพมหานคร,BANGKOK,ดินแดง,DIN DAENG,ดินแดง,DIN DAENG
84,9,1,รถไฟฟ้า,บีทีเอส,BTS,ปัจจุบัน,สายสุขุมวิท,Sukhumvit Line,สะพานใหม่,Saphan Mai,13.89674200,100.60916500,กรุงเทพมหานคร,BANGKOK,สายไหม,SAI MAI,คลองถนน,KHLONG THANON
169,246,9,รถไฟฟ้า,เอ็มอาร์ทีเอ,MRT,อนาคต,สายสีเหลือง,Yellow Line,ลำสาลี,Lam Sali,13.76226500,100.64557400,กรุงเทพมหานคร,BANGKOK,บางกะปิ,BANG KAPI,หัวหมาก,HUA MAK
305,97,3,รถไฟฟ้า,เอ็มอาร์ที,MRT,ปัจจุบัน,สายสีน้ำเงิน,Blue Line,ลุมพินี,Lumphini,13.72542500,100.54652100,กรุงเทพมหานคร,BANGKOK,สาทร,SATHON,ทุ่งมหาเมฆ,THUNG MAHAMEK
16,262,10,รถไฟฟ้า,เอ็มอาร์ทีเอ,MRT,อนาคต,สายสีชมพู,Pink Line,เมืองทองธานี,Muang Thong Thani,13.90264700,100.53337300,นนทบุรี,NONTHABURI,ปากเกร็ด,PAK KRET,บางตลาด,BANG TALAT
136,200,7,รถไฟฟ้า,เอสอาร์ที,SRT,ปัจจุบัน,สายสีแดงเข้ม,Dark Red Line,จตุจักร,Chatuchak,13.82437500,100.54850100,กรุงเทพมหานคร,BANGKOK,จตุจักร,CHATUCHAK,จตุจักร,CHATUCHAK
5,310,13,รถไฟฟ้า,บีทีเอส,BTS,อนาคต,สายสีฟ้า,Light Blue Line,ประชาสงเคราะห์,Pracha Songkhro,13.77261538,100.55414690,กรุงเทพมหานคร,BANGKOK,พญาไท,PHAYA THAI,สามเสนใน,SAM SEN NAI
189,29,1,รถไฟฟ้า,บีทีเอส,BTS,ปัจจุบัน,สายสุขุมวิท,Sukhumvit Line,ชิดลม,Chit Lom,13.74410300,100.54308300,กรุงเทพมหานคร,BANGKOK,ปทุมวัน,PATHUM WAN,ลุมพินี,LUMPHINI
150,295,12,รถไฟฟ้า,บีทีเอส,BTS,อนาคต,สายสีเทา,Grey Line,นวศรี,Nawasi,13.76673100,100.60145600,กรุงเทพมหานคร,BANGKOK,วังทองหลาง,WANG THONGLANG,วังทองหลาง,WANG THONGLANG
241,172,6,รถไฟฟ้า,เอสอาร์ที,SRT,อนาคต,สายสีแดงอ่อน,Light Red Line,สิรินทร,สิรินทร,13.78500400,100.49282900,กรุงเทพมหานคร,BANGKOK,บางพลัด,BANG PHLAT,บางพลัด,BANG PHLAT
22,156,6,รถไฟฟ้า,เอสอาร์ที,SRT,อนาคต,สายสีแดงอ่อน,Light Red Line,รามคำแหง,Ramkhamhaeng,13.74276700,100.60026200,กรุงเทพมหานคร,BANGKOK,สวนหลวง,SUAN LUANG,สวนหลวง,SUAN LUANG
182,184,7,รถไฟฟ้า,เอสอาร์ที,SRT,อนาคต,สายสีแดงเข้ม,Dark Red Line,คลองสาน,Khlong San,13.72888291,100.51001710,กรุงเทพมหานคร,BANGKOK,คลองสาน,KHLONG SAN,คลองสาน,KHLONG SAN
83,175,6,รถไฟฟ้า,เอสอาร์ที,SRT,อนาคต,สายสีแดงอ่อน,Light Red Line,ตลาดน้ำตลิ่งชัน,ตลาดน้ำตลิ่งชัน,13.77600211,100.45661330,กรุงเทพมหานคร,BANGKOK,ตลิ่งชัน,TALING CHAN,บางระมาด,BANG RAMAT
248,258,9,รถไฟฟ้า,เอ็มอาร์ทีเอ,MRT,อนาคต,สายสีเหลือง,Yellow Line,กลันตัน,กลันตัน,13.72571300,100.64174900,กรุงเทพมหานคร,BANGKOK,สวนหลวง,PHATTHANAKAN,พัฒนาการ,SUAN LUANG
57,265,10,รถไฟฟ้า,เอ็มอาร์ทีเอ,MRT,ปัจจุบัน,สายสีชมพู,Pink Line,ศูนย์ราชการฯ,Government Complex,13.89013900,100.56903900,กรุงเทพมหานคร,BANGKOK,หลักสี่,LAK SI,ทุ่งสองห้อง,THUNG SONG HONG
279,185,7,รถไฟฟ้า,เอสอาร์ที,SRT,อนาคต,สายสีแดงเข้ม,Dark Red Line,วงเวียนใหญ่,Wongwian Yai,13.72451100,100.49204500,กรุงเทพมหานคร,BANGKOK,ธนบุรี,THON BURI,บางยี่เรือ,BANG YI RUEA
133,220,8,รถไฟฟ้า,เอ็มอาร์ที,MRT,อนาคต,สายสีส้ม,Orange Line,มีนบุรี,Min Buri,13.81009400,100.73275400,กรุงเทพมหานคร,BANGKOK,คลองสามวา,KHLONG SAM WA,ทรายกองดินใต้,SAI KONG DIN TAI
186,227,8,รถไฟฟ้า,เอ็มอาร์ที,MRT,อนาคต,สายสีส้ม,Orange Line,อนุสาวรีย์ประชาธิปไตย,Democracy Monument,13.75627600,100.50388300,กรุงเทพมหานคร,BANGKOK,ป้อมปราบศัตรูพ่าย,POM PRAP SATTRU PHAI,บ้านบาตร,BAN BAT
128,87,3,รถไฟฟ้า,เอ็มอาร์ที,MRT,ปัจจุบัน,สายสีน้ำเงิน,Blue Line,ลาดพร้าว,Lat Phrao,13.80578700,100.57409300,กรุงเทพมหานคร,BANGKOK,จตุจักร,CHATUCHAK,จันทรเกษม,CHANTHARAKASEM
9,276,10,รถไฟฟ้า,เอ็มอาร์ทีเอ,MRT,ปัจจุบัน,สายสีชมพู,Pink Line,เศรษฐบุตรบำเพ็ญ,Setthabutbamphen,13.81262800,100.71365000,กรุงเทพมหานคร,BANGKOK,คลองสามวา,KHLONG SAM WA,ทรายกองดินใต้,SAI KONG DIN TAI
130,160,6,รถไฟฟ้า,เอสอาร์ที,SRT,ปัจจุบัน,สายสีแดงอ่อน,Light Red Line,บางกรวย,Bang Kruai,13.80708000,100.50846000,กรุงเทพมหานคร,BANGKOK,บางพลัด,BANG PHLAT,บางอ้อ,BANG O
259,83,3,รถไฟฟ้า,เอ็มอาร์ที,MRT,ปัจจุบัน,สายสีน้ำเงิน,Blue Line,บางซื่อ,Bang Sue,13.80244100,100.53998200,กรุงเทพมหานคร,BANGKOK,บางซื่อ,BANG SUE,บางซื่อ,BANG SUE
284,140,4,รถไฟฟ้า,เอ็มอาร์ที,MRT,อนาคต,สายสีม่วง,Purple Line,วงวียนใหญ่,Wongwian Yai,13.72433900,100.49239900,กรุงเทพมหานคร,BANGKOK,ธนบุรี,THON BURI,บางยี่เรือ,BANG YI RUEA
89,104,3,รถไฟฟ้า,เอ็มอาร์ที,MRT,ปัจจุบัน,สายสีน้ำเงิน,Blue Line,สามยอด,Sam Yot,13.74697800,100.50223600,กรุงเทพมหานคร,BANGKOK,พระนคร,PHRA NAKHON,วังบูรพาภิรมย์,WANG BURAPHA PHIROM
190,66,2,รถไฟฟ้า,บีทีเอส,BTS,ปัจจุบัน,สายสีลม,Silom Line,โพธินิมิตร,Pho Nimit,13.71897600,100.48494500,กรุงเทพมหานคร,BANGKOK,ธนบุรี,THON BURI,ตลาดพลู,TALAT PHLU
105,73,2,รถไฟฟ้า,บีทีเอส,BTS,อนาคต,สายสีลม,Silom Line,บรมราชชนนี,บรมราชชนนี,13.78028200,100.44260140,กรุงเทพมหานคร,BANGKOK,ตลิ่งชัน,TALING CHAN,ฉิมพลี,CHIMPHLI
111,260,10,รถไฟฟ้า,เอ็มอาร์ทีเอ,MRT,ปัจจุบัน,สายสีชมพู,Pink Line,แจ้งวัฒนะ-ปากเกร็ด-28,Changwattana-Pak Kret 28,13.90689900,100.51071300,นนทบุรี,NONTHABURI,ปากเกร็ด,PAK KRET,บางตลาด,BANG TALAT
234,188,7,รถไฟฟ้า,เอสอาร์ที,SRT,อนาคต,สายสีแดงเข้ม,Dark Red Line,สามแยก,Sam Yaek,13.63353200,100.39176700,กรุงเทพมหานคร,BANGKOK,บางบอน,BANG BON,บางบอนเหนือ,BANG BON NUEA
308,195,7,รถไฟฟ้า,เอสอาร์ที,SRT,อนาคต,สายสีแดงเข้ม,Dark Red Line,ยศเส,Yot Se,13.74817500,100.51777200,กรุงเทพมหานคร,BANGKOK,ปทุมวัน,PATHUM WAN,รองเมือง,RONG MUEANG
15,221,8,รถไฟฟ้า,เอ็มอาร์ที,MRT,อนาคต,สายสีส้ม,Orange Line,รางน้ำ,Rang Nam,13.76146100,100.54253300,กรุงเทพมหานคร,BANGKOK,ราชเทวี,RATCHATHEWI,ถนนพญาไท,THANON PHAYA THAI
30,19,1,รถไฟฟ้า,บีทีเอส,BTS,ปัจจุบัน,สายสุขุมวิท,Sukhumvit Line,พหลโยธิน-24,Phahonyothin 24,13.82389000,100.56630300,กรุงเทพมหานคร,BANGKOK,จตุจักร,CHATUCHAK,ลาดยาว,LAT YAO
244,237,8,รถไฟฟ้า,เอ็มอาร์ที,MRT,อนาคต,สายสีส้ม,Orange Line,รามคำแหง,Ramkhamhaeng,13.75803700,100.61621100,กรุงเทพมหานคร,BANGKOK,บางกะปิ,BANG KAPI,หัวหมาก,HUA MAK
288,61,2,รถไฟฟ้า,บีทีเอส,BTS,ปัจจุบัน,สายสีลม,Silom Line,ช่องนนทรี,Chong Nonsi,13.72375600,100.52938300,กรุงเทพมหานคร,BANGKOK,สาทร,SATHON,ยานนาวา,YAN NAWA
72,95,3,รถไฟฟ้า,เอ็มอาร์ที,MRT,ปัจจุบัน,สายสีน้ำเงิน,Blue Line,ศูนย์ประชุมแห่งชาติสิริกิตติ์,Queen Sirikit National Convention Centre,13.72318500,100.56010600,กรุงเทพมหานคร,BANGKOK,คลองเตย,KHLONG TOEI,คลองเตย,KHLONG TOEI
155,88,3,รถไฟฟ้า,เอ็มอาร์ที,MRT,ปัจจุบัน,สายสีน้ำเงิน,Blue Line,รัชดาภิเษก,Ratchadaphisek,13.79911300,100.57462400,กรุงเทพมหานคร,BANGKOK,ห้วยขวาง,HUAI KHWANG,สามเสนนอก,SAM SEN NOK
270,102,3,รถไฟฟ้า,เอ็มอาร์ที,MRT,ปัจจุบัน,สายสีน้ำเงิน,Blue Line,อิสรภาพ,Itsaraphap,13.73735000,100.48584600,กรุงเทพมหานคร,BANGKOK,บางกอกใหญ่,BANGKOK YAI,วัดท่าพระ,WAT THA PHRA
174,59,2,รถไฟฟ้า,บีทีเอส,BTS,ปัจจุบัน,สายสีลม,Silom Line,ราชดำริ,Ratchadamri,13.73945100,100.53946700,กรุงเทพมหานคร,BANGKOK,ปทุมวัน,PATHUM WAN,ปทุมวัน,PATHUM WAN
71,180,7,รถไฟฟ้า,เอสอาร์ที,SRT,อนาคต,สายสีแดงเข้ม,Dark Red Line,วัดสิงห์,Wat Sing,13.68310900,100.44790500,กรุงเทพมหานคร,BANGKOK,จอมทอง,CHOM THONG,บางขุนเทียน,BANG KHUN THIAN
62,275,10,รถไฟฟ้า,เอ็มอาร์ทีเอ,MRT,ปัจจุบัน,สายสีชมพู,Pink Line,บางชัน,Bang Chan,13.81265900,100.70079100,กรุงเทพมหานคร,BANGKOK,คันนายาว,KHAN NA YAO,คันนายาว,KHAN NA YAO
63,63,2,รถไฟฟ้า,บีทีเอส,BTS,ปัจจุบัน,สายสีลม,Silom Line,สะพานตากสิน,Saphan Taksin,13.71880400,100.51416700,กรุงเทพมหานคร,BANGKOK,บางรัก,BANG RAK,บางรัก,BANG RAK
247,208,7,รถไฟฟ้า,เอสอาร์ที,SRT,ปัจจุบัน,สายสีแดงเข้ม,Dark Red Line,รังสิต,Rangsit,13.99029300,100.60226800,ปทุมธานี,PATHUM THANI,ธัญบุรี,THANYABURI,ประชาธิปัตย์,PRACHA THIPAT
152,314,13,รถไฟฟ้า,บีทีเอส,BTS,อนาคต,สายสีฟ้า,Light Blue Line,เพชรบุรี,Phetchaburi,13.74863900,100.54837200,กรุงเทพมหานคร,BANGKOK,ปทุมวัน,PATHUM WAN,ลุมพินี,LUMPHINI
118,218,8,รถไฟฟ้า,เอ็มอาร์ที,MRT,อนาคต,สายสีส้ม,Orange Line,มีนพัฒนา,Min Phatthana,13.80003500,100.71633400,กรุงเทพมหานคร,BANGKOK,คลองสามวา,KHLONG SAM WA,ทรายกองดินใต้,SAI KONG DIN TAI
225,144,4,รถไฟฟ้า,เอ็มอาร์ที,MRT,อนาคต,สายสีม่วง,Purple Line,ดาวคะนอง,ดาวคะนอง,13.68658000,100.48607700,กรุงเทพมหานคร,BANGKOK,ราษฎร์บูรณะ,RAT BURANA,บางปะกอก,BANG PAKOK
12,75,3,รถไฟฟ้า,เอ็มอาร์ที,MRT,ปัจจุบัน,สายสีน้ำเงิน,Blue Line,ไฟฉาย,Fai Chai,13.75428900,100.46948000,กรุงเทพมหานคร,BANGKOK,บางกอกน้อย,BANGKOK NOI,บ้านช่างหล่อ,BAN CHANG LO
170,181,7,รถไฟฟ้า,เอสอาร์ที,SRT,อนาคต,สายสีแดงเข้ม,Dark Red Line,บางบอน,Bang Bon,13.66838500,100.43137600,กรุงเทพมหานคร,BANGKOK,บางบอน,BANG BON,คลองบางพราน,KHLONG BANG PHRAN
85,72,2,รถไฟฟ้า,บีทีเอส,BTS,อนาคต,สายสีลม,Silom Line,อินทราวาส,อินทราวาส,13.75787270,100.44520850,กรุงเทพมหานคร,BANGKOK,ตลิ่งชัน,TALING CHAN,บางระมาด,BANG RAMAT
160,98,3,รถไฟฟ้า,เอ็มอาร์ที,MRT,ปัจจุบัน,สายสีน้ำเงิน,Blue Line,สีลม,Si Lom,13.72907600,100.53782600,กรุงเทพมหานคร,BANGKOK,ปทุมวัน,PATHUM WAN,ปทุมวัน,PATHUM WAN
195,318,13,รถไฟฟ้า,บีทีเอส,BTS,อนาคต,สายสีฟ้า,Light Blue Line,ช่องนนทรี,Chong Nonsi,13.72220800,100.53140100,กรุงเทพมหานคร,BANGKOK,สาทร,SATHON,ยานนาวา,YAN NAWA
101,21,1,รถไฟฟ้า,บีทีเอส,BTS,ปัจจุบัน,สายสุขุมวิท,Sukhumvit Line,หมอชิต,Mo Chit,13.80257600,100.55382200,กรุงเทพมหานคร,BANGKOK,จตุจักร,CHATUCHAK,จตุจักร,CHATUCHAK
8,287,11,รถไฟฟ้า,บีทีเอส,BTS,ปัจจุบัน,สายสีทอง,Gold line,สถานีเจริญนคร,Charoen Nakhon,13.72623966,100.50904740,กรุงเทพมหานคร,BANGKOK,คลองสาน,KHLONG SAN,คลองสาน,KHLONG SAN
36,28,1,รถไฟฟ้า,บีทีเอส,BTS,ปัจจุบัน,สายสุขุมวิท,Sukhumvit Line,สยาม,Siam,13.74563500,100.53430600,กรุงเทพมหานคร,BANGKOK,ปทุมวัน,PATHUM WAN,ปทุมวัน,PATHUM WAN
286,254,9,รถไฟฟ้า,เอ็มอาร์ทีเอ,MRT,อนาคต,สายสีเหลือง,Yellow Line,ศรีแบริ่ง,Si Bearing,13.64419000,100.63666500,สมุทรปราการ,SAMUT PRAKAN,บางพลี,BANG PHLI,บางแก้ว,BANG KAEO
211,247,9,รถไฟฟ้า,เอ็มอาร์ทีเอ,MRT,อนาคต,สายสีเหลือง,Yellow Line,ศรีกรีฑา,Si Kritha,13.75124300,100.64505700,กรุงเทพมหานคร,BANGKOK,บางกะปิ,BANG KAPI,หัวหมาก,HUA MAK
271,40,1,รถไฟฟ้า,บีทีเอส,BTS,ปัจจุบัน,สายสุขุมวิท,Sukhumvit Line,อุดมสุข,Udom Suk,13.67849900,100.60891200,กรุงเทพมหานคร,BANGKOK,บางนา,BANG NA,บางนาเหนือ,BANG NA NUEA
198,301,12,รถไฟฟ้า,บีทีเอส,BTS,อนาคต,สายสีเทา,Grey Line,สุขุมวิท-38,Sukhumvit 38,13.71782200,100.58016000,กรุงเทพมหานคร,BANGKOK,คลองเตย,KHLONG TOEI,คลองเตย,KHLONG TOEI
240,112,3,รถไฟฟ้า,เอ็มอาร์ที,MRT,อนาคต,สายสีน้ำเงิน,Blue Line,พุทธมณฑลสาย-2,Phutthamonthon Sai 2,13.70987100,100.39480400,กรุงเทพมหานคร,BANGKOK,บางแค,BANG KHAE,หลักสอง,LAK SONG
239,39,1,รถไฟฟ้า,บีทีเอส,BTS,ปัจจุบัน,สายสุขุมวิท,Sukhumvit Line,ปุณณวิถี,Punnawithi,13.68993000,100.60869500,กรุงเทพมหานคร,BANGKOK,พระโขนง,PHRA KHANONG,บางจาก,BANG CHAK
299,267,10,รถไฟฟ้า,เอ็มอาร์ทีเอ,MRT,ปัจจุบัน,สายสีชมพู,Pink Line,ราชภัฎพระนคร,Rajabhat Phranakhon,13.88003500,100.58912100,กรุงเทพมหานคร,BANGKOK,บางเขน,BANG KHEN,อนุสาวรีย์,ANUSAWARI
175,211,7,รถไฟฟ้า,เอสอาร์ที,SRT,อนาคต,สายสีแดงเข้ม,Dark Red Line,ม.ธรรมศาสตร์รังสิต,Thammasat University,14.06856000,100.59010300,ปทุมธานี,PATHUM THANI,คลองหลวง,KHLONG LUANG,คลองหนึ่ง,KHLONG NUENG
60,3,1,รถไฟฟ้า,บีทีเอส,BTS,อนาคต,สายสุขุมวิท,Sukhumvit Line,คลองสี่,Khlong Si,13.93318120,100.68855920,ปทุมธานี,PATHUM THANI,ลำลูกกา,LAM LUK KA,ลาดสวาย,LAT SAWAI
78,2,1,รถไฟฟ้า,บีทีเอส,BTS,อนาคต,สายสุขุมวิท,Sukhumvit Line,คลองห้า,Khlong Ha,13.93350400,100.70152300,ปทุมธานี,PATHUM THANI,ลำลูกกา,LAM LUK KA,ลาดสวาย,LAT SAWAI
205,128,4,รถไฟฟ้า,เอ็มอาร์ที,MRT,ปัจจุบัน,สายสีม่วง,Purple Line,บางพลู,Bang Phlu,13.87563300,100.43230600,นนทบุรี,NONTHABURI,บางบัวทอง,BANG BUA THONG,บางรักพัฒนา,BANG RAK PHATTHANA
242,93,3,รถไฟฟ้า,เอ็มอาร์ที,MRT,ปัจจุบัน,สายสีน้ำเงิน,Blue Line,เพชรบุรี,Phetchaburi,13.74936200,100.56351200,กรุงเทพมหานคร,BANGKOK,ราชเทวี,RATCHATHEWI,มักกะสัน,MAKKASAN
67,315,13,รถไฟฟ้า,บีทีเอส,BTS,อนาคต,สายสีฟ้า,Light Blue Line,เพลินจิต,Phloen Chit,13.74173400,100.54722200,กรุงเทพมหานคร,BANGKOK,ปทุมวัน,PATHUM WAN,ลุมพินี,LUMPHINI
6,284,10,รถไฟฟ้า,เอ็มอาร์ทีเอ,MRT,ปัจจุบัน,สายสีชมพู,Pink Line,ปากเกร็ด,Pak Kret,13.90673200,100.50451100,นนทบุรี,NONTHABURI,ปากเกร็ด,PAK KRET,บางตลาด,BANG TALAT
99,299,12,รถไฟฟ้า,บีทีเอส,BTS,ปัจจุบัน,สายสีเทา,Grey Line,ทองหล่อ-10,Thong Lo 10,13.73231900,100.58200200,กรุงเทพมหานคร,BANGKOK,วัฒนา,VADHANA,คลองตันเหนือ,KHLONG TAN NUEA
202,223,8,รถไฟฟ้า,เอ็มอาร์ที,MRT,อนาคต,สายสีส้ม,Orange Line,ประตูน้ำ,Pratunam,13.75105493,100.53794700,กรุงเทพมหานคร,BANGKOK,ราชเทวี,RATCHATHEWI,มักกะสัน,MAKKASAN
103,74,3,รถไฟฟ้า,เอ็มอาร์ที,MRT,ปัจจุบัน,สายสีน้ำเงิน,Blue Line,จรัญสนิทวงศ์-13,Charan 13,13.74117700,100.47060300,กรุงเทพมหานคร,BANGKOK,บางกอกใหญ่,BANGKOK YAI,วัดท่าพระ,WAT THA PHRA
292,18,1,รถไฟฟ้า,บีทีเอส,BTS,ปัจจุบัน,สายสุขุมวิท,Sukhumvit Line,รัชโยธิน,Ratchayothin,13.82937900,100.56950800,กรุงเทพมหานคร,BANGKOK,จตุจักร,CHATUCHAK,ลาดยาว,LAT YAO
98,103,3,รถไฟฟ้า,เอ็มอาร์ที,MRT,ปัจจุบัน,สายสีน้ำเงิน,Blue Line,สนามไชย,Sanam Chai,13.74386000,100.49465800,กรุงเทพมหานคร,BANGKOK,พระนคร,PHRA NAKHON,วังบูรพาภิรมย์,WANG BURAPHA PHIROM
254,194,7,รถไฟฟ้า,เอสอาร์ที,SRT,อนาคต,สายสีแดงเข้ม,Dark Red Line,ยมราช,Yommarat,13.75934600,100.52176700,กรุงเทพมหานคร,BANGKOK,ราชเทวี,RATCHATHEWI,ทุ่งพญาไท,THUNG PHAYA THAI
44,238,8,รถไฟฟ้า,เอ็มอาร์ที,MRT,อนาคต,สายสีส้ม,Orange Line,ราชมังคลา,Rajamangala,13.76036300,100.62486400,กรุงเทพมหานคร,BANGKOK,บางกะปิ,BANG KAPI,หัวหมาก,HUA MAK
269,305,12,รถไฟฟ้า,บีทีเอส,BTS,ปัจจุบัน,สายสีเทา,Grey Line,คลองเตย,Khlong Toei,13.71349000,100.55425300,กรุงเทพมหานคร,BANGKOK,คลองเตย,KHLONG TOEI,คลองเตย,KHLONG TOEI
64,277,10,รถไฟฟ้า,เอ็มอาร์ทีเอ,MRT,ปัจจุบัน,สายสีชมพู,Pink Line,ตลาดมีนบุรี,Min Buri Market,13.81249500,100.72618600,กรุงเทพมหานคร,BANGKOK,คลองสามวา,KHLONG SAM WA,ทรายกองดินใต้,SAI KONG DIN TAI
297,133,4,รถไฟฟ้า,เอ็มอาร์ที,MRT,อนาคต,สายสีม่วง,Purple Line,ศรีย่าน,ศรีย่าน,13.78904600,100.51437500,กรุงเทพมหานคร,BANGKOK,ดุสิต,DUSIT,ถนนนครไชยศรี,THANON NAKHON CHAISI
